{
"type": "FeatureCollection",

"features": [
{ "type": "Feature", "properties": { "stopId": 2735, "stopNumber": 4, "stopNameShort": "ZOOF", "stopName": "Zürich, Zoo\/Forrenweid" }, "geometry": { "type": "Point", "coordinates": [ 8.577939444444439, 47.380353055555602 ] } }
,
{ "type": "Feature", "properties": { "stopId": 2735, "stopNumber": 4, "stopNameShort": "ZOOF", "stopName": "Zürich, Zoo\/Forrenweid" }, "geometry": { "type": "Point", "coordinates": [ 8.57826333333333, 47.3806377777778 ] } }
,
{ "type": "Feature", "properties": { "stopId": 2740, "stopNumber": 7, "stopNameShort": "AARG", "stopName": "Zürich, Aargauerstrasse" }, "geometry": { "type": "Point", "coordinates": [ 8.50218416666667, 47.392103055555602 ] } }
,
{ "type": "Feature", "properties": { "stopId": 2740, "stopNumber": 7, "stopNameShort": "AARG", "stopName": "Zürich, Aargauerstrasse" }, "geometry": { "type": "Point", "coordinates": [ 8.502703611111111, 47.392251111111101 ] } }
,
{ "type": "Feature", "properties": { "stopId": 2741, "stopNumber": 9, "stopNameShort": "RALS", "stopName": "Rüschlikon, Alsenstrasse" }, "geometry": { "type": "Point", "coordinates": [ 8.55715472222222, 47.3018022222222 ] } }
,
{ "type": "Feature", "properties": { "stopId": 1638, "stopNumber": 28, "stopNameShort": "BADL01", "stopName": "Adliswil, Bahnhof" }, "geometry": { "type": "Point", "coordinates": [ 8.52443861111111, 47.311515 ] } }
,
{ "type": "Feature", "properties": { "stopId": 2750, "stopNumber": 857, "stopNameShort": "FWEG", "stopName": "Zürich, Fischerweg" }, "geometry": { "type": "Point", "coordinates": [ 8.5125975, 47.393518055555603 ] } }
,
{ "type": "Feature", "properties": { "stopId": 2008, "stopNumber": 863, "stopNameShort": "FLUP", "stopName": "Dübendorf, Flugplatz" }, "geometry": { "type": "Point", "coordinates": [ 8.627761111111109, 47.4025663888889 ] } }
,
{ "type": "Feature", "properties": { "stopId": 2769, "stopNumber": 867, "stopNameShort": "FLUR", "stopName": "Zürich, Flurstrasse" }, "geometry": { "type": "Point", "coordinates": [ 8.49192194444444, 47.381555833333302 ] } }
,
{ "type": "Feature", "properties": { "stopId": 2769, "stopNumber": 867, "stopNameShort": "FLUR", "stopName": "Zürich, Flurstrasse" }, "geometry": { "type": "Point", "coordinates": [ 8.492054166666669, 47.381536666666697 ] } }
,
{ "type": "Feature", "properties": { "stopId": 2771, "stopNumber": 868, "stopNameShort": "FLUE", "stopName": "Zürich, Flühgasse" }, "geometry": { "type": "Point", "coordinates": [ 8.569349166666671, 47.350600277777801 ] } }
,
{ "type": "Feature", "properties": { "stopId": 2771, "stopNumber": 868, "stopNameShort": "FLUE", "stopName": "Zürich, Flühgasse" }, "geometry": { "type": "Point", "coordinates": [ 8.56938722222222, 47.350518888888899 ] } }
,
{ "type": "Feature", "properties": { "stopId": 1571, "stopNumber": 872, "stopNameShort": "FRAN", "stopName": "Zürich, Frankental" }, "geometry": { "type": "Point", "coordinates": [ 8.48138638888889, 47.405569166666702 ] } }
,
{ "type": "Feature", "properties": { "stopId": 1571, "stopNumber": 872, "stopNameShort": "FRAN", "stopName": "Zürich, Frankental" }, "geometry": { "type": "Point", "coordinates": [ 8.481794444444439, 47.405430555555597 ] } }
,
{ "type": "Feature", "properties": { "stopId": 2253, "stopNumber": 883, "stopNameShort": "FREI", "stopName": "Zürich, Freihofstrasse" }, "geometry": { "type": "Point", "coordinates": [ 8.499385555555561, 47.383268611111099 ] } }
,
{ "type": "Feature", "properties": { "stopId": 2253, "stopNumber": 883, "stopNameShort": "FREI", "stopName": "Zürich, Freihofstrasse" }, "geometry": { "type": "Point", "coordinates": [ 8.499870833333331, 47.383030277777799 ] } }
,
{ "type": "Feature", "properties": { "stopId": 2803, "stopNumber": 884, "stopNameShort": "FLAG", "stopName": "Zürich, Freilagerstrasse" }, "geometry": { "type": "Point", "coordinates": [ 8.491069722222219, 47.379305833333298 ] } }
,
{ "type": "Feature", "properties": { "stopId": 2463, "stopNumber": 888, "stopNameShort": "FRIA", "stopName": "Zürich, Friedackerstrasse" }, "geometry": { "type": "Point", "coordinates": [ 8.55316833333333, 47.406032777777803 ] } }
,
{ "type": "Feature", "properties": { "stopId": 2463, "stopNumber": 888, "stopNameShort": "FRIA", "stopName": "Zürich, Friedackerstrasse" }, "geometry": { "type": "Point", "coordinates": [ 8.5538375, 47.405729722222198 ] } }
,
{ "type": "Feature", "properties": { "stopId": 2545, "stopNumber": 893, "stopNameShort": "FEIC", "stopName": "Zürich, Friedhof Eichbühl" }, "geometry": { "type": "Point", "coordinates": [ 8.47467833333333, 47.382872222222197 ] } }
,
{ "type": "Feature", "properties": { "stopId": 2312, "stopNumber": 894, "stopNameShort": "ENZE", "stopName": "Zürich, Friedhof Enzenbühl" }, "geometry": { "type": "Point", "coordinates": [ 8.58009277777778, 47.3510341666667 ] } }
,
{ "type": "Feature", "properties": { "stopId": 2312, "stopNumber": 894, "stopNameShort": "ENZE", "stopName": "Zürich, Friedhof Enzenbühl" }, "geometry": { "type": "Point", "coordinates": [ 8.580542777777779, 47.351029722222201 ] } }
,
{ "type": "Feature", "properties": { "stopId": 2823, "stopNumber": 895, "stopNameShort": "FHOE", "stopName": "Zürich, Friedhof Hönggerberg" }, "geometry": { "type": "Point", "coordinates": [ 8.49428694444445, 47.408699444444402 ] } }
,
{ "type": "Feature", "properties": { "stopId": 2823, "stopNumber": 895, "stopNameShort": "FHOE", "stopName": "Zürich, Friedhof Hönggerberg" }, "geometry": { "type": "Point", "coordinates": [ 8.49438694444444, 47.4083925 ] } }
,
{ "type": "Feature", "properties": { "stopId": 2825, "stopNumber": 896, "stopNameShort": "FSWA", "stopName": "Zürich, Friedhof Schwandenholz" }, "geometry": { "type": "Point", "coordinates": [ 8.53758305555556, 47.421275833333297 ] } }
,
{ "type": "Feature", "properties": { "stopId": 2825, "stopNumber": 896, "stopNameShort": "FSWA", "stopName": "Zürich, Friedhof Schwandenholz" }, "geometry": { "type": "Point", "coordinates": [ 8.53774472222222, 47.421400277777799 ] } }
,
{ "type": "Feature", "properties": { "stopId": 2826, "stopNumber": 897, "stopNameShort": "FSIH", "stopName": "Zürich, Friedhof Sihlfeld" }, "geometry": { "type": "Point", "coordinates": [ 8.510935, 47.376065 ] } }
,
{ "type": "Feature", "properties": { "stopId": 2826, "stopNumber": 897, "stopNameShort": "FSIH", "stopName": "Zürich, Friedhof Sihlfeld" }, "geometry": { "type": "Point", "coordinates": [ 8.51096888888889, 47.375767777777803 ] } }
,
{ "type": "Feature", "properties": { "stopId": 2466, "stopNumber": 899, "stopNameShort": "FWIT", "stopName": "Zürich, Friedhof Witikon" }, "geometry": { "type": "Point", "coordinates": [ 8.602383888888889, 47.361417222222201 ] } }
,
{ "type": "Feature", "properties": { "stopId": 2466, "stopNumber": 899, "stopNameShort": "FWIT", "stopName": "Zürich, Friedhof Witikon" }, "geometry": { "type": "Point", "coordinates": [ 8.603031111111109, 47.361356666666701 ] } }
,
{ "type": "Feature", "properties": { "stopId": 2440, "stopNumber": 901, "stopNameShort": "FRDR", "stopName": "Zürich, Friedrichstrasse" }, "geometry": { "type": "Point", "coordinates": [ 8.56804, 47.403801666666702 ] } }
,
{ "type": "Feature", "properties": { "stopId": 2440, "stopNumber": 901, "stopNameShort": "FRDR", "stopName": "Zürich, Friedrichstrasse" }, "geometry": { "type": "Point", "coordinates": [ 8.569011111111109, 47.40399 ] } }
,
{ "type": "Feature", "properties": { "stopId": 2660, "stopNumber": 902, "stopNameShort": "FRIB", "stopName": "Zürich, Friesenberg" }, "geometry": { "type": "Point", "coordinates": [ 8.507908333333329, 47.364462222222201 ] } }
,
{ "type": "Feature", "properties": { "stopId": 2660, "stopNumber": 902, "stopNameShort": "FRIB", "stopName": "Zürich, Friesenberg" }, "geometry": { "type": "Point", "coordinates": [ 8.508227222222221, 47.364513333333299 ] } }
,
{ "type": "Feature", "properties": { "stopId": 2662, "stopNumber": 904, "stopNameShort": "FRIE", "stopName": "Zürich, Friesenbergstrasse" }, "geometry": { "type": "Point", "coordinates": [ 8.505059166666671, 47.3623388888889 ] } }
,
{ "type": "Feature", "properties": { "stopId": 2662, "stopNumber": 904, "stopNameShort": "FRIE", "stopName": "Zürich, Friesenbergstrasse" }, "geometry": { "type": "Point", "coordinates": [ 8.50506916666667, 47.362176666666699 ] } }
,
{ "type": "Feature", "properties": { "stopId": 2441, "stopNumber": 908, "stopNameShort": "FROB", "stopName": "Zürich, Frohburg" }, "geometry": { "type": "Point", "coordinates": [ 8.562259166666671, 47.404226944444403 ] } }
,
{ "type": "Feature", "properties": { "stopId": 2441, "stopNumber": 908, "stopNameShort": "FROB", "stopName": "Zürich, Frohburg" }, "geometry": { "type": "Point", "coordinates": [ 8.56256111111111, 47.4040980555556 ] } }
,
{ "type": "Feature", "properties": { "stopId": 1694, "stopNumber": 909, "stopNameShort": "FROH07", "stopName": "Glattbrugg, Frohbühlstrasse" }, "geometry": { "type": "Point", "coordinates": [ 8.557886388888891, 47.428345833333303 ] } }
,
{ "type": "Feature", "properties": { "stopId": 2445, "stopNumber": 914, "stopNameShort": "FRON", "stopName": "Zürich, Fronwald" }, "geometry": { "type": "Point", "coordinates": [ 8.50976611111111, 47.4220225 ] } }
,
{ "type": "Feature", "properties": { "stopId": 2445, "stopNumber": 914, "stopNameShort": "FRON", "stopName": "Zürich, Fronwald" }, "geometry": { "type": "Point", "coordinates": [ 8.50989666666667, 47.4219313888889 ] } }
,
{ "type": "Feature", "properties": { "stopId": 2678, "stopNumber": 916, "stopNameShort": "FRYM", "stopName": "Zürich, Frymannstrasse" }, "geometry": { "type": "Point", "coordinates": [ 8.518669722222221, 47.335586388888899 ] } }
,
{ "type": "Feature", "properties": { "stopId": 2678, "stopNumber": 916, "stopNameShort": "FRYM", "stopName": "Zürich, Frymannstrasse" }, "geometry": { "type": "Point", "coordinates": [ 8.51939611111111, 47.334869166666699 ] } }
,
{ "type": "Feature", "properties": { "stopId": 2680, "stopNumber": 917, "stopNameShort": "FROE", "stopName": "Zürich, Fröhlichstrasse" }, "geometry": { "type": "Point", "coordinates": [ 8.55680888888889, 47.355372777777802 ] } }
,
{ "type": "Feature", "properties": { "stopId": 2680, "stopNumber": 917, "stopNameShort": "FROE", "stopName": "Zürich, Fröhlichstrasse" }, "geometry": { "type": "Point", "coordinates": [ 8.557001111111109, 47.355065 ] } }
,
{ "type": "Feature", "properties": { "stopId": 2705, "stopNumber": 927, "stopNameShort": "FOER", "stopName": "Zürich, Förrlibuckstrasse" }, "geometry": { "type": "Point", "coordinates": [ 8.51701083333333, 47.392316388888901 ] } }
,
{ "type": "Feature", "properties": { "stopId": 2705, "stopNumber": 927, "stopNameShort": "FOER", "stopName": "Zürich, Förrlibuckstrasse" }, "geometry": { "type": "Point", "coordinates": [ 8.51769555555556, 47.392121111111102 ] } }
,
{ "type": "Feature", "properties": { "stopId": 2733, "stopNumber": 933, "stopNameShort": "GART", "stopName": "Küsnacht ZH, Gartenstrasse" }, "geometry": { "type": "Point", "coordinates": [ 8.58750027777778, 47.31148 ] } }
,
{ "type": "Feature", "properties": { "stopId": 2505, "stopNumber": 935, "stopNameShort": "GASO", "stopName": "Schlieren, Gasometerbrücke" }, "geometry": { "type": "Point", "coordinates": [ 8.4598025, 47.397918333333301 ] } }
,
{ "type": "Feature", "properties": { "stopId": 2505, "stopNumber": 935, "stopNameShort": "GASO", "stopName": "Schlieren, Gasometerbrücke" }, "geometry": { "type": "Point", "coordinates": [ 8.46184222222222, 47.397207777777801 ] } }
,
{ "type": "Feature", "properties": { "stopId": 2198, "stopNumber": 944, "stopNameShort": "GEER", "stopName": "Zürich, Geeringstrasse" }, "geometry": { "type": "Point", "coordinates": [ 8.480208055555559, 47.414430833333299 ] } }
,
{ "type": "Feature", "properties": { "stopId": 2198, "stopNumber": 944, "stopNameShort": "GEER", "stopName": "Zürich, Geeringstrasse" }, "geometry": { "type": "Point", "coordinates": [ 8.48071, 47.414345555555599 ] } }
,
{ "type": "Feature", "properties": { "stopId": 2198, "stopNumber": 944, "stopNameShort": "GEER", "stopName": "Zürich, Geeringstrasse" }, "geometry": { "type": "Point", "coordinates": [ 8.480877222222221, 47.414083055555601 ] } }
,
{ "type": "Feature", "properties": { "stopId": 2459, "stopNumber": 947, "stopNameShort": "FAEL", "stopName": "Fällanden, Gemeindehaus" }, "geometry": { "type": "Point", "coordinates": [ 8.639975833333329, 47.3717369444444 ] } }
,
{ "type": "Feature", "properties": { "stopId": 2459, "stopNumber": 947, "stopNameShort": "FAEL", "stopName": "Fällanden, Gemeindehaus" }, "geometry": { "type": "Point", "coordinates": [ 8.640282777777781, 47.371841666666697 ] } }
,
{ "type": "Feature", "properties": { "stopId": 1527, "stopNumber": 948, "stopNameShort": "GEME", "stopName": "Weiningen ZH, Gemeindehaus" }, "geometry": { "type": "Point", "coordinates": [ 8.43120583333333, 47.418783611111103 ] } }
,
{ "type": "Feature", "properties": { "stopId": 2790, "stopNumber": 961, "stopNameShort": "GDEH", "stopName": "Zollikon, Gemeindehaus" }, "geometry": { "type": "Point", "coordinates": [ 8.575968888888889, 47.340748333333302 ] } }
,
{ "type": "Feature", "properties": { "stopId": 1816, "stopNumber": 972, "stopNameShort": "GESS", "stopName": "Zürich, Gessnerallee" }, "geometry": { "type": "Point", "coordinates": [ 8.536828333333331, 47.376946111111103 ] } }
,
{ "type": "Feature", "properties": { "stopId": 1816, "stopNumber": 972, "stopNameShort": "GESS", "stopName": "Zürich, Gessnerallee" }, "geometry": { "type": "Point", "coordinates": [ 8.53685416666667, 47.376918888888902 ] } }
,
{ "type": "Feature", "properties": { "stopId": 2811, "stopNumber": 979, "stopNameShort": "GIBL", "stopName": "Zürich, Giblenstrasse" }, "geometry": { "type": "Point", "coordinates": [ 8.4859925, 47.410726666666697 ] } }
,
{ "type": "Feature", "properties": { "stopId": 2811, "stopNumber": 979, "stopNameShort": "GIBL", "stopName": "Zürich, Giblenstrasse" }, "geometry": { "type": "Point", "coordinates": [ 8.48622388888889, 47.410364722222198 ] } }
,
{ "type": "Feature", "properties": { "stopId": 2048, "stopNumber": 990, "stopNameShort": "GJUC", "stopName": "Dietikon, Gjuchstrasse" }, "geometry": { "type": "Point", "coordinates": [ 8.3931775, 47.408031388888901 ] } }
,
{ "type": "Feature", "properties": { "stopId": 1067, "stopNumber": 992, "stopNameShort": "GLAG07", "stopName": "Glattbrugg, Zentrum" }, "geometry": { "type": "Point", "coordinates": [ 8.56586083333333, 47.433507777777798 ] } }
,
{ "type": "Feature", "properties": { "stopId": 1452, "stopNumber": 994, "stopNameShort": "BGLA07", "stopName": "Glattbrugg, Bahnhof" }, "geometry": { "type": "Point", "coordinates": [ 8.55929027777778, 47.430638333333299 ] } }
,
{ "type": "Feature", "properties": { "stopId": 1452, "stopNumber": 994, "stopNameShort": "BGLA07", "stopName": "Glattbrugg, Bahnhof" }, "geometry": { "type": "Point", "coordinates": [ 8.559445555555561, 47.430456944444401 ] } }
,
{ "type": "Feature", "properties": { "stopId": 2052, "stopNumber": 998, "stopNameShort": "GLAT", "stopName": "Zürich, Glattwiesen" }, "geometry": { "type": "Point", "coordinates": [ 8.581588333333331, 47.401689722222201 ] } }
,
{ "type": "Feature", "properties": { "stopId": 2052, "stopNumber": 998, "stopNameShort": "GLAT", "stopName": "Zürich, Glattwiesen" }, "geometry": { "type": "Point", "coordinates": [ 8.581610277777781, 47.401473611111101 ] } }
,
{ "type": "Feature", "properties": { "stopId": 2052, "stopNumber": 998, "stopNameShort": "GLAT", "stopName": "Zürich, Glattwiesen" }, "geometry": { "type": "Point", "coordinates": [ 8.58161472222222, 47.4016802777778 ] } }
,
{ "type": "Feature", "properties": { "stopId": 2052, "stopNumber": 998, "stopNameShort": "GLAT", "stopName": "Zürich, Glattwiesen" }, "geometry": { "type": "Point", "coordinates": [ 8.581915555555559, 47.4014975 ] } }
,
{ "type": "Feature", "properties": { "stopId": 2454, "stopNumber": 1000, "stopNameShort": "GLAU", "stopName": "Zürich, Glaubtenstrasse" }, "geometry": { "type": "Point", "coordinates": [ 8.518725, 47.414815277777798 ] } }
,
{ "type": "Feature", "properties": { "stopId": 2454, "stopNumber": 1000, "stopNameShort": "GLAU", "stopName": "Zürich, Glaubtenstrasse" }, "geometry": { "type": "Point", "coordinates": [ 8.51930916666667, 47.414206944444402 ] } }
,
{ "type": "Feature", "properties": { "stopId": 2454, "stopNumber": 1000, "stopNameShort": "GLAU", "stopName": "Zürich, Glaubtenstrasse" }, "geometry": { "type": "Point", "coordinates": [ 8.51931555555556, 47.414530833333302 ] } }
,
{ "type": "Feature", "properties": { "stopId": 2454, "stopNumber": 1000, "stopNameShort": "GLAU", "stopName": "Zürich, Glaubtenstrasse" }, "geometry": { "type": "Point", "coordinates": [ 8.51972944444444, 47.414679722222203 ] } }
,
{ "type": "Feature", "properties": { "stopId": 2454, "stopNumber": 1000, "stopNameShort": "GLAU", "stopName": "Zürich, Glaubtenstrasse" }, "geometry": { "type": "Point", "coordinates": [ 8.51974444444445, 47.414769722222204 ] } }
,
{ "type": "Feature", "properties": { "stopId": 2454, "stopNumber": 1000, "stopNameShort": "GLAU", "stopName": "Zürich, Glaubtenstrasse" }, "geometry": { "type": "Point", "coordinates": [ 8.51978, 47.413905833333303 ] } }
,
{ "type": "Feature", "properties": { "stopId": 2715, "stopNumber": 1006, "stopNameShort": "GDOR", "stopName": "Gockhausen, Dorf" }, "geometry": { "type": "Point", "coordinates": [ 8.597776111111109, 47.382098611111097 ] } }
,
{ "type": "Feature", "properties": { "stopId": 2715, "stopNumber": 1006, "stopNameShort": "GDOR", "stopName": "Gockhausen, Dorf" }, "geometry": { "type": "Point", "coordinates": [ 8.59819666666667, 47.381950555555598 ] } }
,
{ "type": "Feature", "properties": { "stopId": 2718, "stopNumber": 1007, "stopNameShort": "GOLD", "stopName": "Zürich, Goldackerweg" }, "geometry": { "type": "Point", "coordinates": [ 8.4872625, 47.372243333333302 ] } }
,
{ "type": "Feature", "properties": { "stopId": 2718, "stopNumber": 1007, "stopNameShort": "GOLD", "stopName": "Zürich, Goldackerweg" }, "geometry": { "type": "Point", "coordinates": [ 8.487773055555561, 47.371941944444401 ] } }
,
{ "type": "Feature", "properties": { "stopId": 2746, "stopNumber": 1011, "stopNameShort": "GOBA", "stopName": "Küsnacht ZH, Goldbacherstrasse" }, "geometry": { "type": "Point", "coordinates": [ 8.58021611111111, 47.329588055555597 ] } }
,
{ "type": "Feature", "properties": { "stopId": 2746, "stopNumber": 1011, "stopNameShort": "GOBA", "stopName": "Küsnacht ZH, Goldbacherstrasse" }, "geometry": { "type": "Point", "coordinates": [ 8.580588333333329, 47.3290447222222 ] } }
,
{ "type": "Feature", "properties": { "stopId": 701, "stopNumber": 1012, "stopNameShort": "GOLP", "stopName": "Zürich, Goldbrunnenplatz" }, "geometry": { "type": "Point", "coordinates": [ 8.5136125, 47.370283055555603 ] } }
,
{ "type": "Feature", "properties": { "stopId": 701, "stopNumber": 1012, "stopNameShort": "GOLP", "stopName": "Zürich, Goldbrunnenplatz" }, "geometry": { "type": "Point", "coordinates": [ 8.51368111111111, 47.370399444444402 ] } }
,
{ "type": "Feature", "properties": { "stopId": 701, "stopNumber": 1012, "stopNameShort": "GOLP", "stopName": "Zürich, Goldbrunnenplatz" }, "geometry": { "type": "Point", "coordinates": [ 8.514059166666669, 47.370099166666698 ] } }
,
{ "type": "Feature", "properties": { "stopId": 701, "stopNumber": 1012, "stopNameShort": "GOLP", "stopName": "Zürich, Goldbrunnenplatz" }, "geometry": { "type": "Point", "coordinates": [ 8.514155555555559, 47.370287222222203 ] } }
,
{ "type": "Feature", "properties": { "stopId": 2747, "stopNumber": 1013, "stopNameShort": "GOHA", "stopName": "Zollikon, Goldhaldenplatz" }, "geometry": { "type": "Point", "coordinates": [ 8.57768166666667, 47.334821388888898 ] } }
,
{ "type": "Feature", "properties": { "stopId": 2747, "stopNumber": 1013, "stopNameShort": "GOHA", "stopName": "Zollikon, Goldhaldenplatz" }, "geometry": { "type": "Point", "coordinates": [ 8.577762222222219, 47.334874722222203 ] } }
,
{ "type": "Feature", "properties": { "stopId": 1526, "stopNumber": 1018, "stopNameShort": "GOBI", "stopName": "Kilchberg ZH, Gottlieb-Binder" }, "geometry": { "type": "Point", "coordinates": [ 8.542634444444451, 47.322874444444402 ] } }
,
{ "type": "Feature", "properties": { "stopId": 1526, "stopNumber": 1018, "stopNameShort": "GOBI", "stopName": "Kilchberg ZH, Gottlieb-Binder" }, "geometry": { "type": "Point", "coordinates": [ 8.542648333333331, 47.322901111111101 ] } }
,
{ "type": "Feature", "properties": { "stopId": 2770, "stopNumber": 1026, "stopNameShort": "GRIM", "stopName": "Zürich, Grimselstrasse" }, "geometry": { "type": "Point", "coordinates": [ 8.489712777777781, 47.387045 ] } }
,
{ "type": "Feature", "properties": { "stopId": 2770, "stopNumber": 1026, "stopNameShort": "GRIM", "stopName": "Zürich, Grimselstrasse" }, "geometry": { "type": "Point", "coordinates": [ 8.49031888888889, 47.386895555555597 ] } }
,
{ "type": "Feature", "properties": { "stopId": 2010, "stopNumber": 1028, "stopNameShort": "GRIN", "stopName": "Geroldswil, Grindlen" }, "geometry": { "type": "Point", "coordinates": [ 8.415169444444439, 47.418020833333301 ] } }
,
{ "type": "Feature", "properties": { "stopId": 2010, "stopNumber": 1028, "stopNameShort": "GRIN", "stopName": "Geroldswil, Grindlen" }, "geometry": { "type": "Point", "coordinates": [ 8.415477777777779, 47.4182072222222 ] } }
,
{ "type": "Feature", "properties": { "stopId": 2021, "stopNumber": 1039, "stopNameShort": "GRAU", "stopName": "Dietikon, Grünau" }, "geometry": { "type": "Point", "coordinates": [ 8.404316111111109, 47.411455833333299 ] } }
,
{ "type": "Feature", "properties": { "stopId": 2021, "stopNumber": 1039, "stopNameShort": "GRAU", "stopName": "Dietikon, Grünau" }, "geometry": { "type": "Point", "coordinates": [ 8.40511, 47.409928888888899 ] } }
,
{ "type": "Feature", "properties": { "stopId": 2544, "stopNumber": 1041, "stopNameShort": "GRUN", "stopName": "Zürich, Grünaustrasse" }, "geometry": { "type": "Point", "coordinates": [ 8.489217222222219, 47.395505 ] } }
,
{ "type": "Feature", "properties": { "stopId": 2544, "stopNumber": 1041, "stopNameShort": "GRUN", "stopName": "Zürich, Grünaustrasse" }, "geometry": { "type": "Point", "coordinates": [ 8.48956861111111, 47.395195833333297 ] } }
,
{ "type": "Feature", "properties": { "stopId": 2544, "stopNumber": 1041, "stopNameShort": "GRUN", "stopName": "Zürich, Grünaustrasse" }, "geometry": { "type": "Point", "coordinates": [ 8.490016666666669, 47.395074722222198 ] } }
,
{ "type": "Feature", "properties": { "stopId": 2544, "stopNumber": 1041, "stopNameShort": "GRUN", "stopName": "Zürich, Grünaustrasse" }, "geometry": { "type": "Point", "coordinates": [ 8.49018638888889, 47.3949475 ] } }
,
{ "type": "Feature", "properties": { "stopId": 2040, "stopNumber": 1054, "stopNameShort": "GRUZ", "stopName": "Dübendorf, Grüzenstrasse" }, "geometry": { "type": "Point", "coordinates": [ 8.617135833333331, 47.391563888888903 ] } }
,
{ "type": "Feature", "properties": { "stopId": 2045, "stopNumber": 1061, "stopNameShort": "GUGG", "stopName": "Zürich, Guggachstrasse" }, "geometry": { "type": "Point", "coordinates": [ 8.5400475, 47.395598333333297 ] } }
,
{ "type": "Feature", "properties": { "stopId": 2045, "stopNumber": 1061, "stopNameShort": "GUGG", "stopName": "Zürich, Guggachstrasse" }, "geometry": { "type": "Point", "coordinates": [ 8.540238333333329, 47.395866388888898 ] } }
,
{ "type": "Feature", "properties": { "stopId": 2857, "stopNumber": 1073, "stopNameShort": "GUTS", "stopName": "Zürich, Gutstrasse" }, "geometry": { "type": "Point", "coordinates": [ 8.506386944444451, 47.371789444444403 ] } }
,
{ "type": "Feature", "properties": { "stopId": 2857, "stopNumber": 1073, "stopNameShort": "GUTS", "stopName": "Zürich, Gutstrasse" }, "geometry": { "type": "Point", "coordinates": [ 8.50687416666667, 47.371658888888902 ] } }
,
{ "type": "Feature", "properties": { "stopId": 2859, "stopNumber": 1075, "stopNameShort": "GOES", "stopName": "Zumikon, Gössikon" }, "geometry": { "type": "Point", "coordinates": [ 8.61405444444445, 47.331722222222197 ] } }
,
{ "type": "Feature", "properties": { "stopId": 2859, "stopNumber": 1075, "stopNameShort": "GOES", "stopName": "Zumikon, Gössikon" }, "geometry": { "type": "Point", "coordinates": [ 8.614870277777779, 47.3327125 ] } }
,
{ "type": "Feature", "properties": { "stopId": 2529, "stopNumber": 1076, "stopNameShort": "GUET", "stopName": "Zürich, Güterbahnhof" }, "geometry": { "type": "Point", "coordinates": [ 8.51967055555555, 47.380418055555602 ] } }
,
{ "type": "Feature", "properties": { "stopId": 2529, "stopNumber": 1076, "stopNameShort": "GUET", "stopName": "Zürich, Güterbahnhof" }, "geometry": { "type": "Point", "coordinates": [ 8.52009111111111, 47.380261388888897 ] } }
,
{ "type": "Feature", "properties": { "stopId": 2338, "stopNumber": 1091, "stopNameShort": "HAGA", "stopName": "Dietikon, Hagackerstrasse" }, "geometry": { "type": "Point", "coordinates": [ 8.39648694444444, 47.417448611111098 ] } }
,
{ "type": "Feature", "properties": { "stopId": 2338, "stopNumber": 1091, "stopNameShort": "HAGA", "stopName": "Dietikon, Hagackerstrasse" }, "geometry": { "type": "Point", "coordinates": [ 8.39699111111111, 47.417489166666698 ] } }
,
{ "type": "Feature", "properties": { "stopId": 2339, "stopNumber": 1094, "stopNameShort": "OHAL", "stopName": "Oetwil an der Limmat, Halde" }, "geometry": { "type": "Point", "coordinates": [ 8.39981388888889, 47.425579166666701 ] } }
,
{ "type": "Feature", "properties": { "stopId": 2339, "stopNumber": 1094, "stopNameShort": "OHAL", "stopName": "Oetwil an der Limmat, Halde" }, "geometry": { "type": "Point", "coordinates": [ 8.400228333333329, 47.425764722222198 ] } }
,
{ "type": "Feature", "properties": { "stopId": 2258, "stopNumber": 1098, "stopNameShort": "HALB", "stopName": "Zürich, Haldenbach" }, "geometry": { "type": "Point", "coordinates": [ 8.548123611111111, 47.3801125 ] } }
,
{ "type": "Feature", "properties": { "stopId": 2258, "stopNumber": 1098, "stopNameShort": "HALB", "stopName": "Zürich, Haldenbach" }, "geometry": { "type": "Point", "coordinates": [ 8.54818194444444, 47.380363888888901 ] } }
,
{ "type": "Feature", "properties": { "stopId": 2302, "stopNumber": 1100, "stopNameShort": "HEGG", "stopName": "Zürich, Haldenegg" }, "geometry": { "type": "Point", "coordinates": [ 8.544030833333331, 47.380070833333299 ] } }
,
{ "type": "Feature", "properties": { "stopId": 2302, "stopNumber": 1100, "stopNameShort": "HEGG", "stopName": "Zürich, Haldenegg" }, "geometry": { "type": "Point", "coordinates": [ 8.544075, 47.380295277777797 ] } }
,
{ "type": "Feature", "properties": { "stopId": 2302, "stopNumber": 1100, "stopNameShort": "HEGG", "stopName": "Zürich, Haldenegg" }, "geometry": { "type": "Point", "coordinates": [ 8.544938333333331, 47.3791355555556 ] } }
,
{ "type": "Feature", "properties": { "stopId": 2302, "stopNumber": 1100, "stopNameShort": "HEGG", "stopName": "Zürich, Haldenegg" }, "geometry": { "type": "Point", "coordinates": [ 8.545302777777779, 47.378835277777803 ] } }
,
{ "type": "Feature", "properties": { "stopId": 2757, "stopNumber": 1106, "stopNameShort": "HABA", "stopName": "Küsnacht ZH, Hallenbad" }, "geometry": { "type": "Point", "coordinates": [ 8.585084444444441, 47.313546111111101 ] } }
,
{ "type": "Feature", "properties": { "stopId": 2792, "stopNumber": 1120, "stopNameShort": "HARH", "stopName": "Zürich, Hardhof" }, "geometry": { "type": "Point", "coordinates": [ 8.49732972222222, 47.3964563888889 ] } }
,
{ "type": "Feature", "properties": { "stopId": 2792, "stopNumber": 1120, "stopNameShort": "HARH", "stopName": "Zürich, Hardhof" }, "geometry": { "type": "Point", "coordinates": [ 8.49772277777778, 47.396227777777803 ] } }
,
{ "type": "Feature", "properties": { "stopId": 2526, "stopNumber": 1122, "stopNameShort": "HARP", "stopName": "Zürich, Hardplatz" }, "geometry": { "type": "Point", "coordinates": [ 8.514225277777779, 47.382276944444399 ] } }
,
{ "type": "Feature", "properties": { "stopId": 2526, "stopNumber": 1122, "stopNameShort": "HARP", "stopName": "Zürich, Hardplatz" }, "geometry": { "type": "Point", "coordinates": [ 8.514316944444451, 47.382231111111103 ] } }
,
{ "type": "Feature", "properties": { "stopId": 2526, "stopNumber": 1122, "stopNameShort": "HARP", "stopName": "Zürich, Hardplatz" }, "geometry": { "type": "Point", "coordinates": [ 8.5147575, 47.383063611111098 ] } }
,
{ "type": "Feature", "properties": { "stopId": 2526, "stopNumber": 1122, "stopNameShort": "HARP", "stopName": "Zürich, Hardplatz" }, "geometry": { "type": "Point", "coordinates": [ 8.514928888888891, 47.3823694444444 ] } }
,
{ "type": "Feature", "properties": { "stopId": 2526, "stopNumber": 1122, "stopNameShort": "HARP", "stopName": "Zürich, Hardplatz" }, "geometry": { "type": "Point", "coordinates": [ 8.51507333333333, 47.382952777777803 ] } }
,
{ "type": "Feature", "properties": { "stopId": 2308, "stopNumber": 1138, "stopNameShort": "HEDW", "stopName": "Zürich, Hedwigsteig" }, "geometry": { "type": "Point", "coordinates": [ 8.564830555555559, 47.360386111111097 ] } }
,
{ "type": "Feature", "properties": { "stopId": 2308, "stopNumber": 1138, "stopNameShort": "HEDW", "stopName": "Zürich, Hedwigsteig" }, "geometry": { "type": "Point", "coordinates": [ 8.5652125, 47.3603013888889 ] } }
,
{ "type": "Feature", "properties": { "stopId": 2812, "stopNumber": 1139, "stopNameShort": "HEER", "stopName": "Zürich, Heerenwiesen" }, "geometry": { "type": "Point", "coordinates": [ 8.576051111111109, 47.404820555555602 ] } }
,
{ "type": "Feature", "properties": { "stopId": 2812, "stopNumber": 1139, "stopNameShort": "HEER", "stopName": "Zürich, Heerenwiesen" }, "geometry": { "type": "Point", "coordinates": [ 8.57612916666667, 47.404756944444401 ] } }
,
{ "type": "Feature", "properties": { "stopId": 2812, "stopNumber": 1139, "stopNameShort": "HEER", "stopName": "Zürich, Heerenwiesen" }, "geometry": { "type": "Point", "coordinates": [ 8.576449444444441, 47.404861666666697 ] } }
,
{ "type": "Feature", "properties": { "stopId": 2812, "stopNumber": 1139, "stopNameShort": "HEER", "stopName": "Zürich, Heerenwiesen" }, "geometry": { "type": "Point", "coordinates": [ 8.57647388888889, 47.404771388888904 ] } }
,
{ "type": "Feature", "properties": { "stopId": 2812, "stopNumber": 1139, "stopNameShort": "HEER", "stopName": "Zürich, Heerenwiesen" }, "geometry": { "type": "Point", "coordinates": [ 8.576596666666671, 47.4049322222222 ] } }
,
{ "type": "Feature", "properties": { "stopId": 2812, "stopNumber": 1139, "stopNameShort": "HEER", "stopName": "Zürich, Heerenwiesen" }, "geometry": { "type": "Point", "coordinates": [ 8.57667333333333, 47.404805555555598 ] } }
,
{ "type": "Feature", "properties": { "stopId": 2836, "stopNumber": 1143, "stopNameShort": "HEGA", "stopName": "Zürich, Hegianwandweg" }, "geometry": { "type": "Point", "coordinates": [ 8.509951666666669, 47.356770555555599 ] } }
,
{ "type": "Feature", "properties": { "stopId": 2836, "stopNumber": 1143, "stopNameShort": "HEGA", "stopName": "Zürich, Hegianwandweg" }, "geometry": { "type": "Point", "coordinates": [ 8.510039722222221, 47.356544722222203 ] } }
,
{ "type": "Feature", "properties": { "stopId": 2113, "stopNumber": 1144, "stopNameShort": "HEGI", "stopName": "Zürich, Hegibachplatz" }, "geometry": { "type": "Point", "coordinates": [ 8.559663611111111, 47.3614619444444 ] } }
,
{ "type": "Feature", "properties": { "stopId": 2113, "stopNumber": 1144, "stopNameShort": "HEGI", "stopName": "Zürich, Hegibachplatz" }, "geometry": { "type": "Point", "coordinates": [ 8.560064444444439, 47.361638055555602 ] } }
,
{ "type": "Feature", "properties": { "stopId": 2113, "stopNumber": 1144, "stopNameShort": "HEGI", "stopName": "Zürich, Hegibachplatz" }, "geometry": { "type": "Point", "coordinates": [ 8.56055722222222, 47.361768055555601 ] } }
,
{ "type": "Feature", "properties": { "stopId": 2113, "stopNumber": 1144, "stopNameShort": "HEGI", "stopName": "Zürich, Hegibachplatz" }, "geometry": { "type": "Point", "coordinates": [ 8.56059944444444, 47.3618936111111 ] } }
,
{ "type": "Feature", "properties": { "stopId": 2113, "stopNumber": 1144, "stopNameShort": "HEGI", "stopName": "Zürich, Hegibachplatz" }, "geometry": { "type": "Point", "coordinates": [ 8.560708055555549, 47.361397777777803 ] } }
,
{ "type": "Feature", "properties": { "stopId": 2113, "stopNumber": 1144, "stopNameShort": "HEGI", "stopName": "Zürich, Hegibachplatz" }, "geometry": { "type": "Point", "coordinates": [ 8.56080694444444, 47.361684722222201 ] } }
,
{ "type": "Feature", "properties": { "stopId": 2113, "stopNumber": 1144, "stopNameShort": "HEGI", "stopName": "Zürich, Hegibachplatz" }, "geometry": { "type": "Point", "coordinates": [ 8.56088583333333, 47.361665833333298 ] } }
,
{ "type": "Feature", "properties": { "stopId": 2050, "stopNumber": 1151, "stopNameShort": "HEIM", "stopName": "Schlieren, Heimeliweg" }, "geometry": { "type": "Point", "coordinates": [ 8.437271666666669, 47.394544166666698 ] } }
,
{ "type": "Feature", "properties": { "stopId": 2050, "stopNumber": 1151, "stopNameShort": "HEIM", "stopName": "Schlieren, Heimeliweg" }, "geometry": { "type": "Point", "coordinates": [ 8.43839972222222, 47.394660277777803 ] } }
,
{ "type": "Feature", "properties": { "stopId": 1454, "stopNumber": 1156, "stopNameShort": "HEIZ", "stopName": "Zürich, Heizenholz" }, "geometry": { "type": "Point", "coordinates": [ 8.48380666666667, 47.412095833333296 ] } }
,
{ "type": "Feature", "properties": { "stopId": 1454, "stopNumber": 1156, "stopNameShort": "HEIZ", "stopName": "Zürich, Heizenholz" }, "geometry": { "type": "Point", "coordinates": [ 8.483849166666671, 47.412239166666701 ] } }
,
{ "type": "Feature", "properties": { "stopId": 1454, "stopNumber": 1156, "stopNameShort": "HEIZ", "stopName": "Zürich, Heizenholz" }, "geometry": { "type": "Point", "coordinates": [ 8.483906111111111, 47.4124455555556 ] } }
,
{ "type": "Feature", "properties": { "stopId": 2854, "stopNumber": 1157, "stopNameShort": "HELM", "stopName": "Zürich, Helmhaus" }, "geometry": { "type": "Point", "coordinates": [ 8.54343722222222, 47.369956944444397 ] } }
,
{ "type": "Feature", "properties": { "stopId": 2854, "stopNumber": 1157, "stopNameShort": "HELM", "stopName": "Zürich, Helmhaus" }, "geometry": { "type": "Point", "coordinates": [ 8.543560833333331, 47.3695419444444 ] } }
,
{ "type": "Feature", "properties": { "stopId": 2528, "stopNumber": 1158, "stopNameShort": "HELV", "stopName": "Zürich, Helvetiaplatz" }, "geometry": { "type": "Point", "coordinates": [ 8.52539638888889, 47.376109722222203 ] } }
,
{ "type": "Feature", "properties": { "stopId": 2528, "stopNumber": 1158, "stopNameShort": "HELV", "stopName": "Zürich, Helvetiaplatz" }, "geometry": { "type": "Point", "coordinates": [ 8.525703333333331, 47.376223888888902 ] } }
,
{ "type": "Feature", "properties": { "stopId": 2528, "stopNumber": 1158, "stopNameShort": "HELV", "stopName": "Zürich, Helvetiaplatz" }, "geometry": { "type": "Point", "coordinates": [ 8.525943333333331, 47.3763025 ] } }
,
{ "type": "Feature", "properties": { "stopId": 2528, "stopNumber": 1158, "stopNameShort": "HELV", "stopName": "Zürich, Helvetiaplatz" }, "geometry": { "type": "Point", "coordinates": [ 8.526072777777779, 47.376157222222197 ] } }
,
{ "type": "Feature", "properties": { "stopId": 2472, "stopNumber": 1160, "stopNameShort": "HERB", "stopName": "Zürich, Herbstweg" }, "geometry": { "type": "Point", "coordinates": [ 8.56472916666667, 47.408889166666697 ] } }
,
{ "type": "Feature", "properties": { "stopId": 2868, "stopNumber": 1162, "stopNameShort": "HERD", "stopName": "Zürich, Herdernstrasse" }, "geometry": { "type": "Point", "coordinates": [ 8.50779638888889, 47.384639444444403 ] } }
,
{ "type": "Feature", "properties": { "stopId": 2868, "stopNumber": 1162, "stopNameShort": "HERD", "stopName": "Zürich, Herdernstrasse" }, "geometry": { "type": "Point", "coordinates": [ 8.50890388888889, 47.385042777777798 ] } }
,
{ "type": "Feature", "properties": { "stopId": 2868, "stopNumber": 1162, "stopNameShort": "HERD", "stopName": "Zürich, Herdernstrasse" }, "geometry": { "type": "Point", "coordinates": [ 8.50897916666667, 47.384835277777803 ] } }
,
{ "type": "Feature", "properties": { "stopId": 2553, "stopNumber": 1175, "stopNameShort": "HERT", "stopName": "Zürich, Hertensteinstrasse" }, "geometry": { "type": "Point", "coordinates": [ 8.54360694444444, 47.4228913888889 ] } }
,
{ "type": "Feature", "properties": { "stopId": 2553, "stopNumber": 1175, "stopNameShort": "HERT", "stopName": "Zürich, Hertensteinstrasse" }, "geometry": { "type": "Point", "coordinates": [ 8.54368361111111, 47.422746944444398 ] } }
,
{ "type": "Feature", "properties": { "stopId": 1581, "stopNumber": 1176, "stopNameShort": "HRTI07", "stopName": "Wallisellen, Herti" }, "geometry": { "type": "Point", "coordinates": [ 8.578646944444451, 47.4165425 ] } }
,
{ "type": "Feature", "properties": { "stopId": 1581, "stopNumber": 1176, "stopNameShort": "HRTI07", "stopName": "Wallisellen, Herti" }, "geometry": { "type": "Point", "coordinates": [ 8.579241388888891, 47.416455833333302 ] } }
,
{ "type": "Feature", "properties": { "stopId": 2332, "stopNumber": 1178, "stopNameShort": "HWEG", "stopName": "Urdorf, Herweg" }, "geometry": { "type": "Point", "coordinates": [ 8.41786055555556, 47.39355 ] } }
,
{ "type": "Feature", "properties": { "stopId": 2332, "stopNumber": 1178, "stopNameShort": "HWEG", "stopName": "Urdorf, Herweg" }, "geometry": { "type": "Point", "coordinates": [ 8.41800666666667, 47.3935755555556 ] } }
,
{ "type": "Feature", "properties": { "stopId": 2422, "stopNumber": 1179, "stopNameShort": "HERZ", "stopName": "Zürich, Herzogenmühlestrasse" }, "geometry": { "type": "Point", "coordinates": [ 8.57273416666667, 47.407101944444399 ] } }
,
{ "type": "Feature", "properties": { "stopId": 2422, "stopNumber": 1179, "stopNameShort": "HERZ", "stopName": "Zürich, Herzogenmühlestrasse" }, "geometry": { "type": "Point", "coordinates": [ 8.57277027777778, 47.407551388888898 ] } }
,
{ "type": "Feature", "properties": { "stopId": 2569, "stopNumber": 1182, "stopNameShort": "HESL", "stopName": "Küsnacht ZH, Hesligenstrasse" }, "geometry": { "type": "Point", "coordinates": [ 8.592949166666671, 47.3157525 ] } }
,
{ "type": "Feature", "properties": { "stopId": 2569, "stopNumber": 1182, "stopNameShort": "HESL", "stopName": "Küsnacht ZH, Hesligenstrasse" }, "geometry": { "type": "Point", "coordinates": [ 8.59376277777778, 47.315456388888897 ] } }
,
{ "type": "Feature", "properties": { "stopId": 1908, "stopNumber": 1187, "stopNameShort": "HEUR", "stopName": "Zürich, Heuried" }, "geometry": { "type": "Point", "coordinates": [ 8.50582916666667, 47.369068888888897 ] } }
,
{ "type": "Feature", "properties": { "stopId": 1908, "stopNumber": 1187, "stopNameShort": "HEUR", "stopName": "Zürich, Heuried" }, "geometry": { "type": "Point", "coordinates": [ 8.50612722222222, 47.369399166666703 ] } }
,
{ "type": "Feature", "properties": { "stopId": 1908, "stopNumber": 1187, "stopNameShort": "HEUR", "stopName": "Zürich, Heuried" }, "geometry": { "type": "Point", "coordinates": [ 8.50676361111111, 47.369447222222199 ] } }
,
{ "type": "Feature", "properties": { "stopId": 2577, "stopNumber": 1189, "stopNameShort": "HIST", "stopName": "Küsnacht ZH, Himmelistrasse" }, "geometry": { "type": "Point", "coordinates": [ 8.59209805555555, 47.31371 ] } }
,
{ "type": "Feature", "properties": { "stopId": 2577, "stopNumber": 1189, "stopNameShort": "HIST", "stopName": "Küsnacht ZH, Himmelistrasse" }, "geometry": { "type": "Point", "coordinates": [ 8.592385, 47.31413 ] } }
,
{ "type": "Feature", "properties": { "stopId": 2606, "stopNumber": 1194, "stopNameShort": "HINT", "stopName": "Zürich, Hinterbergstrasse" }, "geometry": { "type": "Point", "coordinates": [ 8.554546388888889, 47.380104444444399 ] } }
,
{ "type": "Feature", "properties": { "stopId": 1532, "stopNumber": 1215, "stopNameShort": "HIRS", "stopName": "Zürich, Hirschwiesenstrasse" }, "geometry": { "type": "Point", "coordinates": [ 8.54333388888889, 47.4001275 ] } }
,
{ "type": "Feature", "properties": { "stopId": 1532, "stopNumber": 1215, "stopNameShort": "HIRS", "stopName": "Zürich, Hirschwiesenstrasse" }, "geometry": { "type": "Point", "coordinates": [ 8.54368333333333, 47.4003761111111 ] } }
,
{ "type": "Feature", "properties": { "stopId": 2815, "stopNumber": 1220, "stopNameShort": "HIRZ", "stopName": "Zürich, Hirzenbach" }, "geometry": { "type": "Point", "coordinates": [ 8.58762333333333, 47.40324 ] } }
,
{ "type": "Feature", "properties": { "stopId": 2815, "stopNumber": 1220, "stopNameShort": "HIRZ", "stopName": "Zürich, Hirzenbach" }, "geometry": { "type": "Point", "coordinates": [ 8.591065555555559, 47.403124722222202 ] } }
,
{ "type": "Feature", "properties": { "stopId": 2039, "stopNumber": 1226, "stopNameShort": "HACK", "stopName": "Dietikon, Hofacker" }, "geometry": { "type": "Point", "coordinates": [ 8.411181111111111, 47.398445555555597 ] } }
,
{ "type": "Feature", "properties": { "stopId": 2039, "stopNumber": 1226, "stopNameShort": "HACK", "stopName": "Dietikon, Hofacker" }, "geometry": { "type": "Point", "coordinates": [ 8.41183916666667, 47.398206111111101 ] } }
,
{ "type": "Feature", "properties": { "stopId": 1536, "stopNumber": 1227, "stopNameShort": "HOFA01", "stopName": "Adliswil, Hofackerstrasse" }, "geometry": { "type": "Point", "coordinates": [ 8.535695, 47.315228333333302 ] } }
,
{ "type": "Feature", "properties": { "stopId": 1536, "stopNumber": 1227, "stopNameShort": "HOFA01", "stopName": "Adliswil, Hofackerstrasse" }, "geometry": { "type": "Point", "coordinates": [ 8.53582, 47.315068333333301 ] } }
,
{ "type": "Feature", "properties": { "stopId": 1372, "stopNumber": 1228, "stopNameShort": "HOFF", "stopName": "Dübendorf, Hoffnung" }, "geometry": { "type": "Point", "coordinates": [ 8.599775, 47.396048333333297 ] } }
,
{ "type": "Feature", "properties": { "stopId": 1372, "stopNumber": 1228, "stopNameShort": "HOFF", "stopName": "Dübendorf, Hoffnung" }, "geometry": { "type": "Point", "coordinates": [ 8.60023694444445, 47.395971666666703 ] } }
,
{ "type": "Feature", "properties": { "stopId": 2841, "stopNumber": 1231, "stopNameShort": "HOHE", "stopName": "Zürich, Hohenklingensteig" }, "geometry": { "type": "Point", "coordinates": [ 8.490114444444441, 47.401370555555602 ] } }
,
{ "type": "Feature", "properties": { "stopId": 2841, "stopNumber": 1231, "stopNameShort": "HOHE", "stopName": "Zürich, Hohenklingensteig" }, "geometry": { "type": "Point", "coordinates": [ 8.4902475, 47.401396388888898 ] } }
,
{ "type": "Feature", "properties": { "stopId": 2527, "stopNumber": 1234, "stopNameShort": "BANL", "stopName": "Zürich, Bäckeranlage" }, "geometry": { "type": "Point", "coordinates": [ 8.52283083333333, 47.378229722222201 ] } }
,
{ "type": "Feature", "properties": { "stopId": 2527, "stopNumber": 1234, "stopNameShort": "BANL", "stopName": "Zürich, Bäckeranlage" }, "geometry": { "type": "Point", "coordinates": [ 8.5229225, 47.378831388888898 ] } }
,
{ "type": "Feature", "properties": { "stopId": 2527, "stopNumber": 1234, "stopNameShort": "BANL", "stopName": "Zürich, Bäckeranlage" }, "geometry": { "type": "Point", "coordinates": [ 8.523033333333331, 47.378425555555602 ] } }
,
{ "type": "Feature", "properties": { "stopId": 2527, "stopNumber": 1234, "stopNameShort": "BANL", "stopName": "Zürich, Bäckeranlage" }, "geometry": { "type": "Point", "coordinates": [ 8.52415694444444, 47.379629444444397 ] } }
,
{ "type": "Feature", "properties": { "stopId": 2849, "stopNumber": 1239, "stopNameShort": "HOLZ", "stopName": "Zürich, Holzerhurd" }, "geometry": { "type": "Point", "coordinates": [ 8.49664, 47.423771388888902 ] } }
,
{ "type": "Feature", "properties": { "stopId": 2858, "stopNumber": 1249, "stopNameShort": "HORN", "stopName": "Kilchberg ZH, Hornhaldenstr." }, "geometry": { "type": "Point", "coordinates": [ 8.54201277777778, 47.331830555555598 ] } }
,
{ "type": "Feature", "properties": { "stopId": 2858, "stopNumber": 1249, "stopNameShort": "HORN", "stopName": "Kilchberg ZH, Hornhaldenstr." }, "geometry": { "type": "Point", "coordinates": [ 8.542039166666671, 47.331830277777797 ] } }
,
{ "type": "Feature", "properties": { "stopId": 2870, "stopNumber": 1251, "stopNameShort": "HOTT", "stopName": "Zürich, Hottingerplatz" }, "geometry": { "type": "Point", "coordinates": [ 8.55457305555556, 47.369346111111099 ] } }
,
{ "type": "Feature", "properties": { "stopId": 2870, "stopNumber": 1251, "stopNameShort": "HOTT", "stopName": "Zürich, Hottingerplatz" }, "geometry": { "type": "Point", "coordinates": [ 8.55527222222222, 47.369231388888899 ] } }
,
{ "type": "Feature", "properties": { "stopId": 2871, "stopNumber": 1252, "stopNameShort": "HUBE", "stopName": "Zürich, Hubertus" }, "geometry": { "type": "Point", "coordinates": [ 8.49832472222222, 47.377206666666702 ] } }
,
{ "type": "Feature", "properties": { "stopId": 2871, "stopNumber": 1252, "stopNameShort": "HUBE", "stopName": "Zürich, Hubertus" }, "geometry": { "type": "Point", "coordinates": [ 8.49882027777778, 47.377481111111102 ] } }
,
{ "type": "Feature", "properties": { "stopId": 2871, "stopNumber": 1252, "stopNameShort": "HUBE", "stopName": "Zürich, Hubertus" }, "geometry": { "type": "Point", "coordinates": [ 8.49916305555556, 47.377405833333299 ] } }
,
{ "type": "Feature", "properties": { "stopId": 2871, "stopNumber": 1252, "stopNameShort": "HUBE", "stopName": "Zürich, Hubertus" }, "geometry": { "type": "Point", "coordinates": [ 8.49934027777778, 47.376999444444401 ] } }
,
{ "type": "Feature", "properties": { "stopId": 2871, "stopNumber": 1252, "stopNameShort": "HUBE", "stopName": "Zürich, Hubertus" }, "geometry": { "type": "Point", "coordinates": [ 8.499536944444451, 47.376889722222202 ] } }
,
{ "type": "Feature", "properties": { "stopId": 1598, "stopNumber": 1259, "stopNameShort": "HUNG", "stopName": "Zürich, Hungerbergstrasse" }, "geometry": { "type": "Point", "coordinates": [ 8.500419444444439, 47.421209166666699 ] } }
,
{ "type": "Feature", "properties": { "stopId": 1598, "stopNumber": 1259, "stopNameShort": "HUNG", "stopName": "Zürich, Hungerbergstrasse" }, "geometry": { "type": "Point", "coordinates": [ 8.500984444444439, 47.420970277777798 ] } }
,
{ "type": "Feature", "properties": { "stopId": 1598, "stopNumber": 1259, "stopNameShort": "HUNG", "stopName": "Zürich, Hungerbergstrasse" }, "geometry": { "type": "Point", "coordinates": [ 8.50166666666667, 47.421287777777799 ] } }
,
{ "type": "Feature", "properties": { "stopId": 1598, "stopNumber": 1259, "stopNameShort": "HUNG", "stopName": "Zürich, Hungerbergstrasse" }, "geometry": { "type": "Point", "coordinates": [ 8.50216277777778, 47.420914444444399 ] } }
,
{ "type": "Feature", "properties": { "stopId": 2336, "stopNumber": 1265, "stopNameShort": "HATS", "stopName": "Dietikon, Hätschen" }, "geometry": { "type": "Point", "coordinates": [ 8.393681944444451, 47.402171388888902 ] } }
,
{ "type": "Feature", "properties": { "stopId": 2336, "stopNumber": 1265, "stopNameShort": "HATS", "stopName": "Dietikon, Hätschen" }, "geometry": { "type": "Point", "coordinates": [ 8.394201666666669, 47.402338055555603 ] } }
,
{ "type": "Feature", "properties": { "stopId": 2337, "stopNumber": 1266, "stopNameShort": "WHAE", "stopName": "Wangen, Hätzelwisen" }, "geometry": { "type": "Point", "coordinates": [ 8.64266333333333, 47.410411666666697 ] } }
,
{ "type": "Feature", "properties": { "stopId": 2722, "stopNumber": 1272, "stopNameShort": "HOEF", "stopName": "Zürich, Höfliweg" }, "geometry": { "type": "Point", "coordinates": [ 8.510937222222219, 47.367609444444398 ] } }
,
{ "type": "Feature", "properties": { "stopId": 2722, "stopNumber": 1272, "stopNameShort": "HOEF", "stopName": "Zürich, Höfliweg" }, "geometry": { "type": "Point", "coordinates": [ 8.511017777777781, 47.367671666666702 ] } }
,
{ "type": "Feature", "properties": { "stopId": 2723, "stopNumber": 1273, "stopNameShort": "DHOG", "stopName": "Dübendorf, Högler" }, "geometry": { "type": "Point", "coordinates": [ 8.614455277777781, 47.391941944444397 ] } }
,
{ "type": "Feature", "properties": { "stopId": 2615, "stopNumber": 1286, "stopNameShort": "HOES", "stopName": "Zürich, Höschgasse" }, "geometry": { "type": "Point", "coordinates": [ 8.55502166666667, 47.3578908333333 ] } }
,
{ "type": "Feature", "properties": { "stopId": 2618, "stopNumber": 1288, "stopNameShort": "HUEG", "stopName": "Zürich, Hügelstrasse" }, "geometry": { "type": "Point", "coordinates": [ 8.526038888888889, 47.3584305555556 ] } }
,
{ "type": "Feature", "properties": { "stopId": 2618, "stopNumber": 1288, "stopNameShort": "HUEG", "stopName": "Zürich, Hügelstrasse" }, "geometry": { "type": "Point", "coordinates": [ 8.52701388888889, 47.358688888888899 ] } }
,
{ "type": "Feature", "properties": { "stopId": 2636, "stopNumber": 1292, "stopNameShort": "HUER", "stopName": "Zürich, Hürstholz" }, "geometry": { "type": "Point", "coordinates": [ 8.522753888888889, 47.416783333333299 ] } }
,
{ "type": "Feature", "properties": { "stopId": 2636, "stopNumber": 1292, "stopNameShort": "HUER", "stopName": "Zürich, Hürstholz" }, "geometry": { "type": "Point", "coordinates": [ 8.52303583333333, 47.416960555555598 ] } }
,
{ "type": "Feature", "properties": { "stopId": 1362, "stopNumber": 1303, "stopNameShort": "IEBN", "stopName": "Zürich, Im Ebnet" }, "geometry": { "type": "Point", "coordinates": [ 8.543705, 47.431444722222203 ] } }
,
{ "type": "Feature", "properties": { "stopId": 1362, "stopNumber": 1303, "stopNameShort": "IEBN", "stopName": "Zürich, Im Ebnet" }, "geometry": { "type": "Point", "coordinates": [ 8.543773888888889, 47.43157 ] } }
,
{ "type": "Feature", "properties": { "stopId": 2807, "stopNumber": 1307, "stopNameShort": "IHAG", "stopName": "Zürich, Im Hagacker" }, "geometry": { "type": "Point", "coordinates": [ 8.507385833333331, 47.359528888888903 ] } }
,
{ "type": "Feature", "properties": { "stopId": 2807, "stopNumber": 1307, "stopNameShort": "IHAG", "stopName": "Zürich, Im Hagacker" }, "geometry": { "type": "Point", "coordinates": [ 8.50744027777778, 47.359600277777801 ] } }
,
{ "type": "Feature", "properties": { "stopId": 2828, "stopNumber": 1310, "stopNameShort": "IHUS", "stopName": "Zürich, Im Hüsli" }, "geometry": { "type": "Point", "coordinates": [ 8.51267138888889, 47.328158333333299 ] } }
,
{ "type": "Feature", "properties": { "stopId": 2828, "stopNumber": 1310, "stopNameShort": "IHUS", "stopName": "Zürich, Im Hüsli" }, "geometry": { "type": "Point", "coordinates": [ 8.5128475, 47.328363611111101 ] } }
,
{ "type": "Feature", "properties": { "stopId": 2832, "stopNumber": 1315, "stopNameShort": "IWAL", "stopName": "Zürich, Im Walder" }, "geometry": { "type": "Point", "coordinates": [ 8.574271111111109, 47.348033055555597 ] } }
,
{ "type": "Feature", "properties": { "stopId": 2834, "stopNumber": 1316, "stopNameShort": "IWIN", "stopName": "Zürich, Im Wingert" }, "geometry": { "type": "Point", "coordinates": [ 8.50871861111111, 47.401541666666702 ] } }
,
{ "type": "Feature", "properties": { "stopId": 2834, "stopNumber": 1316, "stopNameShort": "IWIN", "stopName": "Zürich, Im Wingert" }, "geometry": { "type": "Point", "coordinates": [ 8.50910638888889, 47.401061111111098 ] } }
,
{ "type": "Feature", "properties": { "stopId": 2851, "stopNumber": 1320, "stopNameShort": "IDEY", "stopName": "Zürich, In der Ey" }, "geometry": { "type": "Point", "coordinates": [ 8.491048888888891, 47.3695194444444 ] } }
,
{ "type": "Feature", "properties": { "stopId": 2851, "stopNumber": 1320, "stopNameShort": "IDEY", "stopName": "Zürich, In der Ey" }, "geometry": { "type": "Point", "coordinates": [ 8.49131194444444, 47.369436111111099 ] } }
,
{ "type": "Feature", "properties": { "stopId": 2851, "stopNumber": 1320, "stopNameShort": "IDEY", "stopName": "Zürich, In der Ey" }, "geometry": { "type": "Point", "coordinates": [ 8.491883888888889, 47.369565833333297 ] } }
,
{ "type": "Feature", "properties": { "stopId": 2851, "stopNumber": 1320, "stopNameShort": "IDEY", "stopName": "Zürich, In der Ey" }, "geometry": { "type": "Point", "coordinates": [ 8.4919125, 47.3696825 ] } }
,
{ "type": "Feature", "properties": { "stopId": 2470, "stopNumber": 1324, "stopNameShort": "FAEI", "stopName": "Fällanden, Industrie" }, "geometry": { "type": "Point", "coordinates": [ 8.644184722222221, 47.37575 ] } }
,
{ "type": "Feature", "properties": { "stopId": 2470, "stopNumber": 1324, "stopNameShort": "FAEI", "stopName": "Fällanden, Industrie" }, "geometry": { "type": "Point", "coordinates": [ 8.644395555555549, 47.3762875 ] } }
,
{ "type": "Feature", "properties": { "stopId": 2852, "stopNumber": 1327, "stopNameShort": "IGAS", "stopName": "Schlieren, Industrie Gaswerk" }, "geometry": { "type": "Point", "coordinates": [ 8.462052222222219, 47.401253611111102 ] } }
,
{ "type": "Feature", "properties": { "stopId": 2852, "stopNumber": 1327, "stopNameShort": "IGAS", "stopName": "Schlieren, Industrie Gaswerk" }, "geometry": { "type": "Point", "coordinates": [ 8.46331555555556, 47.400801666666702 ] } }
,
{ "type": "Feature", "properties": { "stopId": 1543, "stopNumber": 1334, "stopNameShort": "IRCH", "stopName": "Zürich, Universität Irchel" }, "geometry": { "type": "Point", "coordinates": [ 8.543902777777779, 47.396263333333302 ] } }
,
{ "type": "Feature", "properties": { "stopId": 1543, "stopNumber": 1334, "stopNameShort": "IRCH", "stopName": "Zürich, Universität Irchel" }, "geometry": { "type": "Point", "coordinates": [ 8.544485555555561, 47.3962575 ] } }
,
{ "type": "Feature", "properties": { "stopId": 1543, "stopNumber": 1334, "stopNameShort": "IRCH", "stopName": "Zürich, Universität Irchel" }, "geometry": { "type": "Point", "coordinates": [ 8.54510472222222, 47.3960897222222 ] } }
,
{ "type": "Feature", "properties": { "stopId": 2548, "stopNumber": 1341, "stopNameShort": "ITDO", "stopName": "Itschnach, Dorf" }, "geometry": { "type": "Point", "coordinates": [ 8.60225638888889, 47.327667777777798 ] } }
,
{ "type": "Feature", "properties": { "stopId": 2548, "stopNumber": 1341, "stopNameShort": "ITDO", "stopName": "Itschnach, Dorf" }, "geometry": { "type": "Point", "coordinates": [ 8.60227305555556, 47.327829722222198 ] } }
,
{ "type": "Feature", "properties": { "stopId": 2549, "stopNumber": 1342, "stopNameShort": "ITFA", "stopName": "Itschnach, Fallacher" }, "geometry": { "type": "Point", "coordinates": [ 8.605656388888891, 47.328865833333303 ] } }
,
{ "type": "Feature", "properties": { "stopId": 2549, "stopNumber": 1342, "stopNameShort": "ITFA", "stopName": "Itschnach, Fallacher" }, "geometry": { "type": "Point", "coordinates": [ 8.6062425, 47.329048888888899 ] } }
,
{ "type": "Feature", "properties": { "stopId": 2565, "stopNumber": 1354, "stopNameShort": "JUGI", "stopName": "Zürich, Jugendherberge" }, "geometry": { "type": "Point", "coordinates": [ 8.52767388888889, 47.348230277777802 ] } }
,
{ "type": "Feature", "properties": { "stopId": 2565, "stopNumber": 1354, "stopNameShort": "JUGI", "stopName": "Zürich, Jugendherberge" }, "geometry": { "type": "Point", "coordinates": [ 8.52805083333333, 47.347884722222197 ] } }
,
{ "type": "Feature", "properties": { "stopId": 2565, "stopNumber": 1354, "stopNameShort": "JUGI", "stopName": "Zürich, Jugendherberge" }, "geometry": { "type": "Point", "coordinates": [ 8.5284425, 47.3469725 ] } }
,
{ "type": "Feature", "properties": { "stopId": 2568, "stopNumber": 1356, "stopNameShort": "KALB", "stopName": "Zürich, Kalchbühlweg" }, "geometry": { "type": "Point", "coordinates": [ 8.531477777777781, 47.340728055555601 ] } }
,
{ "type": "Feature", "properties": { "stopId": 2568, "stopNumber": 1356, "stopNameShort": "KALB", "stopName": "Zürich, Kalchbühlweg" }, "geometry": { "type": "Point", "coordinates": [ 8.53152166666667, 47.340296111111101 ] } }
,
{ "type": "Feature", "properties": { "stopId": 1906, "stopNumber": 1357, "stopNameShort": "KALK", "stopName": "Zürich, Kalkbreite" }, "geometry": { "type": "Point", "coordinates": [ 8.52065638888889, 47.374184166666701 ] } }
,
{ "type": "Feature", "properties": { "stopId": 1906, "stopNumber": 1357, "stopNameShort": "KALK", "stopName": "Zürich, Kalkbreite" }, "geometry": { "type": "Point", "coordinates": [ 8.52074555555556, 47.374660277777799 ] } }
,
{ "type": "Feature", "properties": { "stopId": 1906, "stopNumber": 1357, "stopNameShort": "KALK", "stopName": "Zürich, Kalkbreite" }, "geometry": { "type": "Point", "coordinates": [ 8.521080833333331, 47.374216388888897 ] } }
,
{ "type": "Feature", "properties": { "stopId": 1906, "stopNumber": 1357, "stopNameShort": "KALK", "stopName": "Zürich, Kalkbreite" }, "geometry": { "type": "Point", "coordinates": [ 8.5212725, 47.374529444444399 ] } }
,
{ "type": "Feature", "properties": { "stopId": 1906, "stopNumber": 1357, "stopNameShort": "KALK", "stopName": "Zürich, Kalkbreite" }, "geometry": { "type": "Point", "coordinates": [ 8.52153222222222, 47.374283888888897 ] } }
,
{ "type": "Feature", "properties": { "stopId": 2570, "stopNumber": 1358, "stopNameShort": "KANO", "stopName": "Zürich, Kanonengasse" }, "geometry": { "type": "Point", "coordinates": [ 8.53005388888889, 47.378521388888899 ] } }
,
{ "type": "Feature", "properties": { "stopId": 2570, "stopNumber": 1358, "stopNameShort": "KANO", "stopName": "Zürich, Kanonengasse" }, "geometry": { "type": "Point", "coordinates": [ 8.53024861111111, 47.3783216666667 ] } }
,
{ "type": "Feature", "properties": { "stopId": 2571, "stopNumber": 1359, "stopNameShort": "KANT", "stopName": "Zürich, Kantonsschule" }, "geometry": { "type": "Point", "coordinates": [ 8.55035361111111, 47.372733055555599 ] } }
,
{ "type": "Feature", "properties": { "stopId": 2571, "stopNumber": 1359, "stopNameShort": "KANT", "stopName": "Zürich, Kantonsschule" }, "geometry": { "type": "Point", "coordinates": [ 8.55053333333333, 47.372461388888901 ] } }
,
{ "type": "Feature", "properties": { "stopId": 2434, "stopNumber": 1362, "stopNameShort": "KAPF", "stopName": "Zürich, Kapfstrasse" }, "geometry": { "type": "Point", "coordinates": [ 8.57101611111111, 47.361162222222198 ] } }
,
{ "type": "Feature", "properties": { "stopId": 2434, "stopNumber": 1362, "stopNameShort": "KAPF", "stopName": "Zürich, Kapfstrasse" }, "geometry": { "type": "Point", "coordinates": [ 8.57115888888889, 47.361025833333301 ] } }
,
{ "type": "Feature", "properties": { "stopId": 2244, "stopNumber": 1364, "stopNameShort": "KAPP", "stopName": "Zürich, Kappeli" }, "geometry": { "type": "Point", "coordinates": [ 8.494435833333331, 47.3841055555556 ] } }
,
{ "type": "Feature", "properties": { "stopId": 2244, "stopNumber": 1364, "stopNameShort": "KAPP", "stopName": "Zürich, Kappeli" }, "geometry": { "type": "Point", "coordinates": [ 8.49466944444444, 47.3852097222222 ] } }
,
{ "type": "Feature", "properties": { "stopId": 2244, "stopNumber": 1364, "stopNameShort": "KAPP", "stopName": "Zürich, Kappeli" }, "geometry": { "type": "Point", "coordinates": [ 8.494727777777779, 47.384138888888899 ] } }
,
{ "type": "Feature", "properties": { "stopId": 2244, "stopNumber": 1364, "stopNameShort": "KAPP", "stopName": "Zürich, Kappeli" }, "geometry": { "type": "Point", "coordinates": [ 8.49511694444444, 47.385061944444402 ] } }
,
{ "type": "Feature", "properties": { "stopId": 2262, "stopNumber": 1366, "stopNameShort": "SIHP", "stopName": "Zürich, Sihlpost" }, "geometry": { "type": "Point", "coordinates": [ 8.534001388888891, 47.3759925 ] } }
,
{ "type": "Feature", "properties": { "stopId": 2262, "stopNumber": 1366, "stopNameShort": "SIHP", "stopName": "Zürich, Sihlpost" }, "geometry": { "type": "Point", "coordinates": [ 8.53430833333333, 47.3761155555556 ] } }
,
{ "type": "Feature", "properties": { "stopId": 2262, "stopNumber": 1366, "stopNameShort": "SIHP", "stopName": "Zürich, Sihlpost" }, "geometry": { "type": "Point", "coordinates": [ 8.53431111111111, 47.3762502777778 ] } }
,
{ "type": "Feature", "properties": { "stopId": 2262, "stopNumber": 1366, "stopNameShort": "SIHP", "stopName": "Zürich, Sihlpost" }, "geometry": { "type": "Point", "coordinates": [ 8.534564722222219, 47.3763380555556 ] } }
,
{ "type": "Feature", "properties": { "stopId": 2629, "stopNumber": 1379, "stopNameShort": "KEMP", "stopName": "Zürich, Kempfhofsteig" }, "geometry": { "type": "Point", "coordinates": [ 8.509645, 47.397539166666697 ] } }
,
{ "type": "Feature", "properties": { "stopId": 2629, "stopNumber": 1379, "stopNameShort": "KEMP", "stopName": "Zürich, Kempfhofsteig" }, "geometry": { "type": "Point", "coordinates": [ 8.510039722222221, 47.3974097222222 ] } }
,
{ "type": "Feature", "properties": { "stopId": 2247, "stopNumber": 1386, "stopNameShort": "KERN", "stopName": "Zürich, Kernstrasse" }, "geometry": { "type": "Point", "coordinates": [ 8.52438666666667, 47.374653055555598 ] } }
,
{ "type": "Feature", "properties": { "stopId": 2247, "stopNumber": 1386, "stopNameShort": "KERN", "stopName": "Zürich, Kernstrasse" }, "geometry": { "type": "Point", "coordinates": [ 8.52439861111111, 47.37459 ] } }
,
{ "type": "Feature", "properties": { "stopId": 2382, "stopNumber": 1388, "stopNameShort": "KESS", "stopName": "Schlieren, Kesslerstrasse" }, "geometry": { "type": "Point", "coordinates": [ 8.43800055555556, 47.396678611111099 ] } }
,
{ "type": "Feature", "properties": { "stopId": 2382, "stopNumber": 1388, "stopNameShort": "KESS", "stopName": "Schlieren, Kesslerstrasse" }, "geometry": { "type": "Point", "coordinates": [ 8.4380525, 47.395913611111098 ] } }
,
{ "type": "Feature", "properties": { "stopId": 2382, "stopNumber": 1388, "stopNameShort": "KESS", "stopName": "Schlieren, Kesslerstrasse" }, "geometry": { "type": "Point", "coordinates": [ 8.43961194444444, 47.396430833333298 ] } }
,
{ "type": "Feature", "properties": { "stopId": 1503, "stopNumber": 1389, "stopNameShort": "KIEN", "stopName": "Zürich, Kienastenwies" }, "geometry": { "type": "Point", "coordinates": [ 8.60091083333333, 47.355180277777798 ] } }
,
{ "type": "Feature", "properties": { "stopId": 1259, "stopNumber": 1391, "stopNameShort": "BKIL", "stopName": "Kilchberg ZH, Bahnhof" }, "geometry": { "type": "Point", "coordinates": [ 8.54813222222222, 47.324512777777798 ] } }
,
{ "type": "Feature", "properties": { "stopId": 2396, "stopNumber": 1397, "stopNameShort": "KIND", "stopName": "Kindhausen AG" }, "geometry": { "type": "Point", "coordinates": [ 8.37603916666667, 47.3941125 ] } }
,
{ "type": "Feature", "properties": { "stopId": 2292, "stopNumber": 1399, "stopNameShort": "KINK", "stopName": "Zürich, Kinkelstrasse" }, "geometry": { "type": "Point", "coordinates": [ 8.546281666666671, 47.388981388888901 ] } }
,
{ "type": "Feature", "properties": { "stopId": 2292, "stopNumber": 1399, "stopNameShort": "KINK", "stopName": "Zürich, Kinkelstrasse" }, "geometry": { "type": "Point", "coordinates": [ 8.54638388888889, 47.388800555555598 ] } }
,
{ "type": "Feature", "properties": { "stopId": 832, "stopNumber": 1401, "stopNameShort": "KILB", "stopName": "Kilchberg ZH, Kirche" }, "geometry": { "type": "Point", "coordinates": [ 8.541632222222219, 47.317900555555603 ] } }
,
{ "type": "Feature", "properties": { "stopId": 2467, "stopNumber": 1403, "stopNameShort": "MKIR", "stopName": "Maur, Kirche" }, "geometry": { "type": "Point", "coordinates": [ 8.67394972222222, 47.337861388888903 ] } }
,
{ "type": "Feature", "properties": { "stopId": 2467, "stopNumber": 1403, "stopNameShort": "MKIR", "stopName": "Maur, Kirche" }, "geometry": { "type": "Point", "coordinates": [ 8.674067777777781, 47.3378152777778 ] } }
,
{ "type": "Feature", "properties": { "stopId": 2845, "stopNumber": 1407, "stopNameShort": "KFLU", "stopName": "Zürich, Kirche Fluntern" }, "geometry": { "type": "Point", "coordinates": [ 8.55910861111111, 47.377262777777801 ] } }
,
{ "type": "Feature", "properties": { "stopId": 2845, "stopNumber": 1407, "stopNameShort": "KFLU", "stopName": "Zürich, Kirche Fluntern" }, "geometry": { "type": "Point", "coordinates": [ 8.55933888888889, 47.376244166666702 ] } }
,
{ "type": "Feature", "properties": { "stopId": 2845, "stopNumber": 1407, "stopNameShort": "KFLU", "stopName": "Zürich, Kirche Fluntern" }, "geometry": { "type": "Point", "coordinates": [ 8.55956916666667, 47.376493888888902 ] } }
,
{ "type": "Feature", "properties": { "stopId": 2845, "stopNumber": 1407, "stopNameShort": "KFLU", "stopName": "Zürich, Kirche Fluntern" }, "geometry": { "type": "Point", "coordinates": [ 8.559624166666669, 47.376583333333301 ] } }
,
{ "type": "Feature", "properties": { "stopId": 2845, "stopNumber": 1407, "stopNameShort": "KFLU", "stopName": "Zürich, Kirche Fluntern" }, "geometry": { "type": "Point", "coordinates": [ 8.560273055555561, 47.376595 ] } }
,
{ "type": "Feature", "properties": { "stopId": 2053, "stopNumber": 1414, "stopNameShort": "KWIL", "stopName": "Dübendorf, Kirche Wil" }, "geometry": { "type": "Point", "coordinates": [ 8.61809666666667, 47.389494166666701 ] } }
,
{ "type": "Feature", "properties": { "stopId": 2053, "stopNumber": 1414, "stopNameShort": "KWIL", "stopName": "Dübendorf, Kirche Wil" }, "geometry": { "type": "Point", "coordinates": [ 8.61856388888889, 47.3890575 ] } }
,
{ "type": "Feature", "properties": { "stopId": 2054, "stopNumber": 1417, "stopNameShort": "KIPL", "stopName": "Dietikon, Kirchplatz" }, "geometry": { "type": "Point", "coordinates": [ 8.40337722222222, 47.404960277777803 ] } }
,
{ "type": "Feature", "properties": { "stopId": 1905, "stopNumber": 1430, "stopNameShort": "KLUS", "stopName": "Zürich, Klusplatz" }, "geometry": { "type": "Point", "coordinates": [ 8.565852222222221, 47.364262222222202 ] } }
,
{ "type": "Feature", "properties": { "stopId": 1905, "stopNumber": 1430, "stopNameShort": "KLUS", "stopName": "Zürich, Klusplatz" }, "geometry": { "type": "Point", "coordinates": [ 8.56602472222222, 47.364278611111096 ] } }
,
{ "type": "Feature", "properties": { "stopId": 1905, "stopNumber": 1430, "stopNameShort": "KLUS", "stopName": "Zürich, Klusplatz" }, "geometry": { "type": "Point", "coordinates": [ 8.56639361111111, 47.364193888888899 ] } }
,
{ "type": "Feature", "properties": { "stopId": 1905, "stopNumber": 1430, "stopNameShort": "KLUS", "stopName": "Zürich, Klusplatz" }, "geometry": { "type": "Point", "coordinates": [ 8.566493888888891, 47.363923055555603 ] } }
,
{ "type": "Feature", "properties": { "stopId": 1905, "stopNumber": 1430, "stopNameShort": "KLUS", "stopName": "Zürich, Klusplatz" }, "geometry": { "type": "Point", "coordinates": [ 8.56669, 47.363804166666696 ] } }
,
{ "type": "Feature", "properties": { "stopId": 1905, "stopNumber": 1430, "stopNameShort": "KLUS", "stopName": "Zürich, Klusplatz" }, "geometry": { "type": "Point", "coordinates": [ 8.566738611111109, 47.364226666666703 ] } }
,
{ "type": "Feature", "properties": { "stopId": 1909, "stopNumber": 1440, "stopNameShort": "KSPI", "stopName": "Kilchberg ZH, Spital" }, "geometry": { "type": "Point", "coordinates": [ 8.53523194444444, 47.321856388888897 ] } }
,
{ "type": "Feature", "properties": { "stopId": 2579, "stopNumber": 1441, "stopNameShort": "PKAE", "stopName": "Zürich, Pflegezentr. Käferberg" }, "geometry": { "type": "Point", "coordinates": [ 8.517545, 47.3997325 ] } }
,
{ "type": "Feature", "properties": { "stopId": 2579, "stopNumber": 1441, "stopNameShort": "PKAE", "stopName": "Zürich, Pflegezentr. Käferberg" }, "geometry": { "type": "Point", "coordinates": [ 8.518326388888889, 47.399716111111097 ] } }
,
{ "type": "Feature", "properties": { "stopId": 2581, "stopNumber": 1445, "stopNameShort": "KNOR", "stopName": "Zürich, Krematorium Nordheim" }, "geometry": { "type": "Point", "coordinates": [ 8.52829861111111, 47.4047319444444 ] } }
,
{ "type": "Feature", "properties": { "stopId": 2581, "stopNumber": 1445, "stopNameShort": "KNOR", "stopName": "Zürich, Krematorium Nordheim" }, "geometry": { "type": "Point", "coordinates": [ 8.52843027777778, 47.405333333333303 ] } }
,
{ "type": "Feature", "properties": { "stopId": 2582, "stopNumber": 1446, "stopNameShort": "KSIH", "stopName": "Zürich, Krematorium Sihlfeld" }, "geometry": { "type": "Point", "coordinates": [ 8.50714138888889, 47.377719166666701 ] } }
,
{ "type": "Feature", "properties": { "stopId": 2582, "stopNumber": 1446, "stopNameShort": "KSIH", "stopName": "Zürich, Krematorium Sihlfeld" }, "geometry": { "type": "Point", "coordinates": [ 8.50760472222222, 47.377723888888902 ] } }
,
{ "type": "Feature", "properties": { "stopId": 2582, "stopNumber": 1446, "stopNameShort": "KSIH", "stopName": "Zürich, Krematorium Sihlfeld" }, "geometry": { "type": "Point", "coordinates": [ 8.508016111111109, 47.377756111111097 ] } }
,
{ "type": "Feature", "properties": { "stopId": 2358, "stopNumber": 1451, "stopNameShort": "DKRE", "stopName": "Dübendorf, Kreuzbühl" }, "geometry": { "type": "Point", "coordinates": [ 8.62153833333333, 47.388190555555603 ] } }
,
{ "type": "Feature", "properties": { "stopId": 2084, "stopNumber": 1453, "stopNameShort": "KREU", "stopName": "Zürich, Kreuzplatz" }, "geometry": { "type": "Point", "coordinates": [ 8.553476944444441, 47.365056944444397 ] } }
,
{ "type": "Feature", "properties": { "stopId": 2084, "stopNumber": 1453, "stopNameShort": "KREU", "stopName": "Zürich, Kreuzplatz" }, "geometry": { "type": "Point", "coordinates": [ 8.554078333333329, 47.3653208333333 ] } }
,
{ "type": "Feature", "properties": { "stopId": 2084, "stopNumber": 1453, "stopNameShort": "KREU", "stopName": "Zürich, Kreuzplatz" }, "geometry": { "type": "Point", "coordinates": [ 8.554239166666671, 47.364779722222202 ] } }
,
{ "type": "Feature", "properties": { "stopId": 2612, "stopNumber": 1456, "stopNameShort": "KRES", "stopName": "Zürich, Kreuzstrasse" }, "geometry": { "type": "Point", "coordinates": [ 8.5496, 47.363250277777802 ] } }
,
{ "type": "Feature", "properties": { "stopId": 2612, "stopNumber": 1456, "stopNameShort": "KRES", "stopName": "Zürich, Kreuzstrasse" }, "geometry": { "type": "Point", "coordinates": [ 8.549910555555559, 47.362914444444399 ] } }
,
{ "type": "Feature", "properties": { "stopId": 1407, "stopNumber": 1457, "stopNameShort": "KREK", "stopName": "Kilchberg ZH, Kreuzstrasse" }, "geometry": { "type": "Point", "coordinates": [ 8.545144444444441, 47.325261111111097 ] } }
,
{ "type": "Feature", "properties": { "stopId": 1407, "stopNumber": 1457, "stopNameShort": "KREK", "stopName": "Kilchberg ZH, Kreuzstrasse" }, "geometry": { "type": "Point", "coordinates": [ 8.54519138888889, 47.324972777777802 ] } }
,
{ "type": "Feature", "properties": { "stopId": 1869, "stopNumber": 1462, "stopNameShort": "KROA01", "stopName": "Adliswil, Krone" }, "geometry": { "type": "Point", "coordinates": [ 8.52760333333333, 47.312996388888898 ] } }
,
{ "type": "Feature", "properties": { "stopId": 1869, "stopNumber": 1462, "stopNameShort": "KROA01", "stopName": "Adliswil, Krone" }, "geometry": { "type": "Point", "coordinates": [ 8.52766055555556, 47.313211666666703 ] } }
,
{ "type": "Feature", "properties": { "stopId": 2087, "stopNumber": 1468, "stopNameShort": "KRON", "stopName": "Zürich, Kronenstrasse" }, "geometry": { "type": "Point", "coordinates": [ 8.539180833333329, 47.388275555555602 ] } }
,
{ "type": "Feature", "properties": { "stopId": 2087, "stopNumber": 1468, "stopNameShort": "KRON", "stopName": "Zürich, Kronenstrasse" }, "geometry": { "type": "Point", "coordinates": [ 8.539359166666671, 47.387923055555603 ] } }
,
{ "type": "Feature", "properties": { "stopId": 1305, "stopNumber": 1472, "stopNameShort": "KUNS", "stopName": "Zürich, Kunsthaus" }, "geometry": { "type": "Point", "coordinates": [ 8.548506388888891, 47.370501944444399 ] } }
,
{ "type": "Feature", "properties": { "stopId": 1305, "stopNumber": 1472, "stopNameShort": "KUNS", "stopName": "Zürich, Kunsthaus" }, "geometry": { "type": "Point", "coordinates": [ 8.54854222222222, 47.370312777777798 ] } }
,
{ "type": "Feature", "properties": { "stopId": 1305, "stopNumber": 1472, "stopNameShort": "KUNS", "stopName": "Zürich, Kunsthaus" }, "geometry": { "type": "Point", "coordinates": [ 8.54859055555556, 47.370726111111097 ] } }
,
{ "type": "Feature", "properties": { "stopId": 1305, "stopNumber": 1472, "stopNameShort": "KUNS", "stopName": "Zürich, Kunsthaus" }, "geometry": { "type": "Point", "coordinates": [ 8.54896416666667, 47.370227777777799 ] } }
,
{ "type": "Feature", "properties": { "stopId": 1305, "stopNumber": 1472, "stopNameShort": "KUNS", "stopName": "Zürich, Kunsthaus" }, "geometry": { "type": "Point", "coordinates": [ 8.54903694444444, 47.370541666666703 ] } }
,
{ "type": "Feature", "properties": { "stopId": 1305, "stopNumber": 1472, "stopNameShort": "KUNS", "stopName": "Zürich, Kunsthaus" }, "geometry": { "type": "Point", "coordinates": [ 8.54916722222222, 47.3704416666667 ] } }
,
{ "type": "Feature", "properties": { "stopId": 2654, "stopNumber": 1478, "stopNameShort": "KAMM", "stopName": "Dübendorf, Kämmaten" }, "geometry": { "type": "Point", "coordinates": [ 8.59645888888889, 47.389137222222203 ] } }
,
{ "type": "Feature", "properties": { "stopId": 2654, "stopNumber": 1478, "stopNameShort": "KAMM", "stopName": "Dübendorf, Kämmaten" }, "geometry": { "type": "Point", "coordinates": [ 8.59680194444444, 47.3896825 ] } }
,
{ "type": "Feature", "properties": { "stopId": 2667, "stopNumber": 1483, "stopNameShort": "KAES", "stopName": "Zürich, Käshaldenstrasse" }, "geometry": { "type": "Point", "coordinates": [ 8.540878611111109, 47.430023611111103 ] } }
,
{ "type": "Feature", "properties": { "stopId": 2667, "stopNumber": 1483, "stopNameShort": "KAES", "stopName": "Zürich, Käshaldenstrasse" }, "geometry": { "type": "Point", "coordinates": [ 8.54099583333333, 47.4299325 ] } }
,
{ "type": "Feature", "properties": { "stopId": 2670, "stopNumber": 1488, "stopNameShort": "BKUE", "stopName": "Küsnacht ZH, Bahnhof" }, "geometry": { "type": "Point", "coordinates": [ 8.58024361111111, 47.319126111111103 ] } }
,
{ "type": "Feature", "properties": { "stopId": 2475, "stopNumber": 1498, "stopNameShort": "LANA", "stopName": "Unterengstringen, Langacher" }, "geometry": { "type": "Point", "coordinates": [ 8.452737777777781, 47.412345555555603 ] } }
,
{ "type": "Feature", "properties": { "stopId": 2475, "stopNumber": 1498, "stopNameShort": "LANA", "stopName": "Unterengstringen, Langacher" }, "geometry": { "type": "Point", "coordinates": [ 8.45380666666667, 47.412102222222202 ] } }
,
{ "type": "Feature", "properties": { "stopId": 2862, "stopNumber": 1503, "stopNameShort": "LANG", "stopName": "Zürich, Langgrütstrasse" }, "geometry": { "type": "Point", "coordinates": [ 8.499939722222219, 47.373845833333299 ] } }
,
{ "type": "Feature", "properties": { "stopId": 2862, "stopNumber": 1503, "stopNameShort": "LANG", "stopName": "Zürich, Langgrütstrasse" }, "geometry": { "type": "Point", "coordinates": [ 8.500546944444441, 47.373750277777802 ] } }
,
{ "type": "Feature", "properties": { "stopId": 2863, "stopNumber": 1505, "stopNameShort": "LANH", "stopName": "Rüschlikon, Langhaldenstrasse" }, "geometry": { "type": "Point", "coordinates": [ 8.55099222222222, 47.306224722222197 ] } }
,
{ "type": "Feature", "properties": { "stopId": 2863, "stopNumber": 1505, "stopNameShort": "LANH", "stopName": "Rüschlikon, Langhaldenstrasse" }, "geometry": { "type": "Point", "coordinates": [ 8.55127861111111, 47.306006111111103 ] } }
,
{ "type": "Feature", "properties": { "stopId": 2315, "stopNumber": 1507, "stopNameShort": "LANM", "stopName": "Zürich, Langmauerstrasse" }, "geometry": { "type": "Point", "coordinates": [ 8.5448925, 47.3935283333333 ] } }
,
{ "type": "Feature", "properties": { "stopId": 2315, "stopNumber": 1507, "stopNameShort": "LANM", "stopName": "Zürich, Langmauerstrasse" }, "geometry": { "type": "Point", "coordinates": [ 8.54494388888889, 47.393446666666698 ] } }
,
{ "type": "Feature", "properties": { "stopId": 2315, "stopNumber": 1507, "stopNameShort": "LANM", "stopName": "Zürich, Langmauerstrasse" }, "geometry": { "type": "Point", "coordinates": [ 8.54496416666667, 47.393788333333298 ] } }
,
{ "type": "Feature", "properties": { "stopId": 2315, "stopNumber": 1507, "stopNameShort": "LANM", "stopName": "Zürich, Langmauerstrasse" }, "geometry": { "type": "Point", "coordinates": [ 8.54504166666667, 47.393688611111102 ] } }
,
{ "type": "Feature", "properties": { "stopId": 2324, "stopNumber": 1516, "stopNameShort": "LANZ", "stopName": "Oberengstringen, Lanzrain" }, "geometry": { "type": "Point", "coordinates": [ 8.46735472222222, 47.407592777777801 ] } }
,
{ "type": "Feature", "properties": { "stopId": 2324, "stopNumber": 1516, "stopNameShort": "LANZ", "stopName": "Oberengstringen, Lanzrain" }, "geometry": { "type": "Point", "coordinates": [ 8.467931944444439, 47.4073 ] } }
,
{ "type": "Feature", "properties": { "stopId": 2550, "stopNumber": 1519, "stopNameShort": "LAUB", "stopName": "Zürich, Laubegg" }, "geometry": { "type": "Point", "coordinates": [ 8.516079722222219, 47.358701388888903 ] } }
,
{ "type": "Feature", "properties": { "stopId": 2550, "stopNumber": 1519, "stopNameShort": "LAUB", "stopName": "Zürich, Laubegg" }, "geometry": { "type": "Point", "coordinates": [ 8.516596388888891, 47.359371111111102 ] } }
,
{ "type": "Feature", "properties": { "stopId": 2550, "stopNumber": 1519, "stopNameShort": "LAUB", "stopName": "Zürich, Laubegg" }, "geometry": { "type": "Point", "coordinates": [ 8.516955555555549, 47.358810277777799 ] } }
,
{ "type": "Feature", "properties": { "stopId": 2550, "stopNumber": 1519, "stopNameShort": "LAUB", "stopName": "Zürich, Laubegg" }, "geometry": { "type": "Point", "coordinates": [ 8.51700833333333, 47.358800555555597 ] } }
,
{ "type": "Feature", "properties": { "stopId": 2550, "stopNumber": 1519, "stopNameShort": "LAUB", "stopName": "Zürich, Laubegg" }, "geometry": { "type": "Point", "coordinates": [ 8.517336388888889, 47.358653611111102 ] } }
,
{ "type": "Feature", "properties": { "stopId": 2085, "stopNumber": 1522, "stopNameShort": "LAUI", "stopName": "Zürich, Laubiweg" }, "geometry": { "type": "Point", "coordinates": [ 8.536248055555561, 47.395076944444398 ] } }
,
{ "type": "Feature", "properties": { "stopId": 2085, "stopNumber": 1522, "stopNameShort": "LAUI", "stopName": "Zürich, Laubiweg" }, "geometry": { "type": "Point", "coordinates": [ 8.536455555555561, 47.394858888888898 ] } }
,
{ "type": "Feature", "properties": { "stopId": 2427, "stopNumber": 1527, "stopNameShort": "LEEA", "stopName": "Ebmatingen, Leeacherstrasse" }, "geometry": { "type": "Point", "coordinates": [ 8.633573333333331, 47.354883055555597 ] } }
,
{ "type": "Feature", "properties": { "stopId": 2427, "stopNumber": 1527, "stopNameShort": "LEEA", "stopName": "Ebmatingen, Leeacherstrasse" }, "geometry": { "type": "Point", "coordinates": [ 8.63529, 47.354694166666697 ] } }
,
{ "type": "Feature", "properties": { "stopId": 2563, "stopNumber": 1528, "stopNameShort": "LEHE", "stopName": "Zürich, Lehenstrasse" }, "geometry": { "type": "Point", "coordinates": [ 8.52011166666667, 47.396290277777801 ] } }
,
{ "type": "Feature", "properties": { "stopId": 2563, "stopNumber": 1528, "stopNameShort": "LEHE", "stopName": "Zürich, Lehenstrasse" }, "geometry": { "type": "Point", "coordinates": [ 8.520585555555559, 47.396141944444402 ] } }
,
{ "type": "Feature", "properties": { "stopId": 2563, "stopNumber": 1528, "stopNameShort": "LEHE", "stopName": "Zürich, Lehenstrasse" }, "geometry": { "type": "Point", "coordinates": [ 8.52085, 47.396121666666701 ] } }
,
{ "type": "Feature", "properties": { "stopId": 2594, "stopNumber": 1532, "stopNameShort": "LEIM", "stopName": "Zürich, Leimgrübelstrasse" }, "geometry": { "type": "Point", "coordinates": [ 8.542784722222221, 47.428620277777803 ] } }
,
{ "type": "Feature", "properties": { "stopId": 2594, "stopNumber": 1532, "stopNameShort": "LEIM", "stopName": "Zürich, Leimgrübelstrasse" }, "geometry": { "type": "Point", "coordinates": [ 8.544110833333329, 47.4286525 ] } }
,
{ "type": "Feature", "properties": { "stopId": 2603, "stopNumber": 1539, "stopNameShort": "LERC", "stopName": "Zürich, Lerchenhalde" }, "geometry": { "type": "Point", "coordinates": [ 8.50921444444444, 47.411719444444401 ] } }
,
{ "type": "Feature", "properties": { "stopId": 2603, "stopNumber": 1539, "stopNameShort": "LERC", "stopName": "Zürich, Lerchenhalde" }, "geometry": { "type": "Point", "coordinates": [ 8.50973444444444, 47.4118855555556 ] } }
,
{ "type": "Feature", "properties": { "stopId": 2603, "stopNumber": 1539, "stopNameShort": "LERC", "stopName": "Zürich, Lerchenhalde" }, "geometry": { "type": "Point", "coordinates": [ 8.51012666666667, 47.411620833333302 ] } }
,
{ "type": "Feature", "properties": { "stopId": 2361, "stopNumber": 1540, "stopNameShort": "LERZ", "stopName": "Dietikon, Lerzen" }, "geometry": { "type": "Point", "coordinates": [ 8.399083611111109, 47.417418055555601 ] } }
,
{ "type": "Feature", "properties": { "stopId": 2361, "stopNumber": 1540, "stopNameShort": "LERZ", "stopName": "Dietikon, Lerzen" }, "geometry": { "type": "Point", "coordinates": [ 8.39911638888889, 47.4177594444444 ] } }
,
{ "type": "Feature", "properties": { "stopId": 1417, "stopNumber": 1542, "stopNameShort": "RLET07", "stopName": "Rümlang, Letten" }, "geometry": { "type": "Point", "coordinates": [ 8.53488, 47.438697777777797 ] } }
,
{ "type": "Feature", "properties": { "stopId": 1417, "stopNumber": 1542, "stopNameShort": "RLET07", "stopName": "Rümlang, Letten" }, "geometry": { "type": "Point", "coordinates": [ 8.534965277777779, 47.438337222222202 ] } }
,
{ "type": "Feature", "properties": { "stopId": 2622, "stopNumber": 1547, "stopNameShort": "LETT", "stopName": "Zürich, Lettenstrasse" }, "geometry": { "type": "Point", "coordinates": [ 8.532583055555561, 47.3901191666667 ] } }
,
{ "type": "Feature", "properties": { "stopId": 2622, "stopNumber": 1547, "stopNameShort": "LETT", "stopName": "Zürich, Lettenstrasse" }, "geometry": { "type": "Point", "coordinates": [ 8.53282805555556, 47.3910883333333 ] } }
,
{ "type": "Feature", "properties": { "stopId": 2245, "stopNumber": 1548, "stopNameShort": "LETG", "stopName": "Zürich, Letzigrund" }, "geometry": { "type": "Point", "coordinates": [ 8.503504722222219, 47.381296944444401 ] } }
,
{ "type": "Feature", "properties": { "stopId": 2245, "stopNumber": 1548, "stopNameShort": "LETG", "stopName": "Zürich, Letzigrund" }, "geometry": { "type": "Point", "coordinates": [ 8.50382, 47.381158888888898 ] } }
,
{ "type": "Feature", "properties": { "stopId": 2626, "stopNumber": 1549, "stopNameShort": "LPAW", "stopName": "Zürich, Letzipark West" }, "geometry": { "type": "Point", "coordinates": [ 8.495943611111111, 47.3866825 ] } }
,
{ "type": "Feature", "properties": { "stopId": 2626, "stopNumber": 1549, "stopNameShort": "LPAW", "stopName": "Zürich, Letzipark West" }, "geometry": { "type": "Point", "coordinates": [ 8.49607472222222, 47.385934444444402 ] } }
,
{ "type": "Feature", "properties": { "stopId": 2626, "stopNumber": 1549, "stopNameShort": "LPAW", "stopName": "Zürich, Letzipark West" }, "geometry": { "type": "Point", "coordinates": [ 8.49688583333333, 47.3867727777778 ] } }
,
{ "type": "Feature", "properties": { "stopId": 2274, "stopNumber": 1550, "stopNameShort": "LETZ", "stopName": "Zürich, Letzistrasse" }, "geometry": { "type": "Point", "coordinates": [ 8.54537972222222, 47.390833888888899 ] } }
,
{ "type": "Feature", "properties": { "stopId": 2274, "stopNumber": 1550, "stopNameShort": "LETZ", "stopName": "Zürich, Letzistrasse" }, "geometry": { "type": "Point", "coordinates": [ 8.54549222222222, 47.390509166666703 ] } }
,
{ "type": "Feature", "properties": { "stopId": 1443, "stopNumber": 1552, "stopNameShort": "LEUT", "stopName": "Zürich, Leutschenbach" }, "geometry": { "type": "Point", "coordinates": [ 8.551133333333331, 47.4145527777778 ] } }
,
{ "type": "Feature", "properties": { "stopId": 1443, "stopNumber": 1552, "stopNameShort": "LEUT", "stopName": "Zürich, Leutschenbach" }, "geometry": { "type": "Point", "coordinates": [ 8.55151027777778, 47.414836944444403 ] } }
,
{ "type": "Feature", "properties": { "stopId": 2378, "stopNumber": 1556, "stopNameShort": "LIMB", "stopName": "Fahrweid, Limmatbrücke" }, "geometry": { "type": "Point", "coordinates": [ 8.4118925, 47.407659444444398 ] } }
,
{ "type": "Feature", "properties": { "stopId": 2378, "stopNumber": 1556, "stopNameShort": "LIMB", "stopName": "Fahrweid, Limmatbrücke" }, "geometry": { "type": "Point", "coordinates": [ 8.411998055555561, 47.407631388888902 ] } }
,
{ "type": "Feature", "properties": { "stopId": 2287, "stopNumber": 1557, "stopNameShort": "LIMM", "stopName": "Zürich, Limmatplatz" }, "geometry": { "type": "Point", "coordinates": [ 8.531261666666669, 47.384464722222198 ] } }
,
{ "type": "Feature", "properties": { "stopId": 2287, "stopNumber": 1557, "stopNameShort": "LIMM", "stopName": "Zürich, Limmatplatz" }, "geometry": { "type": "Point", "coordinates": [ 8.53146555555556, 47.384714722222199 ] } }
,
{ "type": "Feature", "properties": { "stopId": 2287, "stopNumber": 1557, "stopNameShort": "LIMM", "stopName": "Zürich, Limmatplatz" }, "geometry": { "type": "Point", "coordinates": [ 8.531765833333329, 47.384505 ] } }
,
{ "type": "Feature", "properties": { "stopId": 2287, "stopNumber": 1557, "stopNameShort": "LIMM", "stopName": "Zürich, Limmatplatz" }, "geometry": { "type": "Point", "coordinates": [ 8.532279166666671, 47.384995 ] } }
,
{ "type": "Feature", "properties": { "stopId": 2535, "stopNumber": 1570, "stopNameShort": "LIND", "stopName": "Zürich, Lindenplatz" }, "geometry": { "type": "Point", "coordinates": [ 8.485543333333331, 47.387856388888899 ] } }
,
{ "type": "Feature", "properties": { "stopId": 2535, "stopNumber": 1570, "stopNameShort": "LIND", "stopName": "Zürich, Lindenplatz" }, "geometry": { "type": "Point", "coordinates": [ 8.485795277777781, 47.387881111111099 ] } }
,
{ "type": "Feature", "properties": { "stopId": 2535, "stopNumber": 1570, "stopNameShort": "LIND", "stopName": "Zürich, Lindenplatz" }, "geometry": { "type": "Point", "coordinates": [ 8.486339166666671, 47.387246666666698 ] } }
,
{ "type": "Feature", "properties": { "stopId": 2535, "stopNumber": 1570, "stopNameShort": "LIND", "stopName": "Zürich, Lindenplatz" }, "geometry": { "type": "Point", "coordinates": [ 8.48634972222222, 47.387777222222198 ] } }
,
{ "type": "Feature", "properties": { "stopId": 2535, "stopNumber": 1570, "stopNameShort": "LIND", "stopName": "Zürich, Lindenplatz" }, "geometry": { "type": "Point", "coordinates": [ 8.48684527777778, 47.388735277777798 ] } }
,
{ "type": "Feature", "properties": { "stopId": 2401, "stopNumber": 1571, "stopNameShort": "WLIN", "stopName": "Weiningen ZH, Lindenplatz" }, "geometry": { "type": "Point", "coordinates": [ 8.433738055555549, 47.419544444444398 ] } }
,
{ "type": "Feature", "properties": { "stopId": 2401, "stopNumber": 1571, "stopNameShort": "WLIN", "stopName": "Weiningen ZH, Lindenplatz" }, "geometry": { "type": "Point", "coordinates": [ 8.433856666666671, 47.419516666666702 ] } }
,
{ "type": "Feature", "properties": { "stopId": 1706, "stopNumber": 1572, "stopNameShort": "DLIN", "stopName": "Dübendorf, Lindenplatz" }, "geometry": { "type": "Point", "coordinates": [ 8.620120277777779, 47.398461666666698 ] } }
,
{ "type": "Feature", "properties": { "stopId": 1706, "stopNumber": 1572, "stopNameShort": "DLIN", "stopName": "Dübendorf, Lindenplatz" }, "geometry": { "type": "Point", "coordinates": [ 8.62036555555555, 47.398628055555598 ] } }
,
{ "type": "Feature", "properties": { "stopId": 1509, "stopNumber": 1577, "stopNameShort": "LISP", "stopName": "Kilchberg ZH, Lindt & Sprüngli" }, "geometry": { "type": "Point", "coordinates": [ 8.551021666666671, 47.319060833333303 ] } }
,
{ "type": "Feature", "properties": { "stopId": 1509, "stopNumber": 1577, "stopNameShort": "LISP", "stopName": "Kilchberg ZH, Lindt & Sprüngli" }, "geometry": { "type": "Point", "coordinates": [ 8.55126027777778, 47.319085277777802 ] } }
,
{ "type": "Feature", "properties": { "stopId": 2248, "stopNumber": 1579, "stopNameShort": "LOCH", "stopName": "Zürich, Lochergut" }, "geometry": { "type": "Point", "coordinates": [ 8.517121111111109, 47.3755125 ] } }
,
{ "type": "Feature", "properties": { "stopId": 2248, "stopNumber": 1579, "stopNameShort": "LOCH", "stopName": "Zürich, Lochergut" }, "geometry": { "type": "Point", "coordinates": [ 8.51771472222222, 47.375399166666703 ] } }
,
{ "type": "Feature", "properties": { "stopId": 2248, "stopNumber": 1579, "stopNameShort": "LOCH", "stopName": "Zürich, Lochergut" }, "geometry": { "type": "Point", "coordinates": [ 8.517727777777781, 47.375344444444401 ] } }
,
{ "type": "Feature", "properties": { "stopId": 2537, "stopNumber": 1581, "stopNameShort": "LOOG", "stopName": "Zürich, Loogarten" }, "geometry": { "type": "Point", "coordinates": [ 8.4722375, 47.389505277777801 ] } }
,
{ "type": "Feature", "properties": { "stopId": 2537, "stopNumber": 1581, "stopNameShort": "LOOG", "stopName": "Zürich, Loogarten" }, "geometry": { "type": "Point", "coordinates": [ 8.472461111111111, 47.3894225 ] } }
,
{ "type": "Feature", "properties": { "stopId": 2449, "stopNumber": 1583, "stopNameShort": "MLOR", "stopName": "Ebmatingen, Looren" }, "geometry": { "type": "Point", "coordinates": [ 8.651228888888889, 47.3396225 ] } }
,
{ "type": "Feature", "properties": { "stopId": 2449, "stopNumber": 1583, "stopNameShort": "MLOR", "stopName": "Ebmatingen, Looren" }, "geometry": { "type": "Point", "coordinates": [ 8.65167388888889, 47.3382325 ] } }
,
{ "type": "Feature", "properties": { "stopId": 2449, "stopNumber": 1583, "stopNameShort": "MLOR", "stopName": "Ebmatingen, Looren" }, "geometry": { "type": "Point", "coordinates": [ 8.652206111111109, 47.3406916666667 ] } }
,
{ "type": "Feature", "properties": { "stopId": 2449, "stopNumber": 1583, "stopNameShort": "MLOR", "stopName": "Ebmatingen, Looren" }, "geometry": { "type": "Point", "coordinates": [ 8.652288055555561, 47.340798888888898 ] } }
,
{ "type": "Feature", "properties": { "stopId": 2450, "stopNumber": 1584, "stopNameShort": "LOOR", "stopName": "Zürich, Loorenstrasse" }, "geometry": { "type": "Point", "coordinates": [ 8.59376888888889, 47.359740555555597 ] } }
,
{ "type": "Feature", "properties": { "stopId": 2450, "stopNumber": 1584, "stopNameShort": "LOOR", "stopName": "Zürich, Loorenstrasse" }, "geometry": { "type": "Point", "coordinates": [ 8.594768333333329, 47.359433611111101 ] } }
,
{ "type": "Feature", "properties": { "stopId": 2450, "stopNumber": 1584, "stopNameShort": "LOOR", "stopName": "Zürich, Loorenstrasse" }, "geometry": { "type": "Point", "coordinates": [ 8.59549472222222, 47.359966111111099 ] } }
,
{ "type": "Feature", "properties": { "stopId": 2481, "stopNumber": 1586, "stopNameShort": "LUBE", "stopName": "Urdorf, Luberzen" }, "geometry": { "type": "Point", "coordinates": [ 8.42323027777778, 47.39381 ] } }
,
{ "type": "Feature", "properties": { "stopId": 2481, "stopNumber": 1586, "stopNameShort": "LUBE", "stopName": "Urdorf, Luberzen" }, "geometry": { "type": "Point", "coordinates": [ 8.423547777777779, 47.393798333333301 ] } }
,
{ "type": "Feature", "properties": { "stopId": 2482, "stopNumber": 1587, "stopNameShort": "LUCH", "stopName": "Zürich, Luchswiesen" }, "geometry": { "type": "Point", "coordinates": [ 8.58480833333333, 47.4060294444444 ] } }
,
{ "type": "Feature", "properties": { "stopId": 2482, "stopNumber": 1587, "stopNameShort": "LUCH", "stopName": "Zürich, Luchswiesen" }, "geometry": { "type": "Point", "coordinates": [ 8.58510083333333, 47.406692222222198 ] } }
,
{ "type": "Feature", "properties": { "stopId": 2482, "stopNumber": 1587, "stopNameShort": "LUCH", "stopName": "Zürich, Luchswiesen" }, "geometry": { "type": "Point", "coordinates": [ 8.585300555555561, 47.407355833333298 ] } }
,
{ "type": "Feature", "properties": { "stopId": 2482, "stopNumber": 1587, "stopNameShort": "LUCH", "stopName": "Zürich, Luchswiesen" }, "geometry": { "type": "Point", "coordinates": [ 8.585751944444439, 47.406775555555598 ] } }
,
{ "type": "Feature", "properties": { "stopId": 2482, "stopNumber": 1587, "stopNameShort": "LUCH", "stopName": "Zürich, Luchswiesen" }, "geometry": { "type": "Point", "coordinates": [ 8.586190555555561, 47.406843333333299 ] } }
,
{ "type": "Feature", "properties": { "stopId": 2482, "stopNumber": 1587, "stopNameShort": "LUCH", "stopName": "Zürich, Luchswiesen" }, "geometry": { "type": "Point", "coordinates": [ 8.586628888888891, 47.406892777777799 ] } }
,
{ "type": "Feature", "properties": { "stopId": 2729, "stopNumber": 1590, "stopNameShort": "LUEG", "stopName": "Zürich, Luegisland" }, "geometry": { "type": "Point", "coordinates": [ 8.580990277777779, 47.405932222222198 ] } }
,
{ "type": "Feature", "properties": { "stopId": 2729, "stopNumber": 1590, "stopNameShort": "LUEG", "stopName": "Zürich, Luegisland" }, "geometry": { "type": "Point", "coordinates": [ 8.5812425, 47.405947777777797 ] } }
,
{ "type": "Feature", "properties": { "stopId": 2729, "stopNumber": 1590, "stopNameShort": "LUEG", "stopName": "Zürich, Luegisland" }, "geometry": { "type": "Point", "coordinates": [ 8.58149694444444, 47.406071111111103 ] } }
,
{ "type": "Feature", "properties": { "stopId": 2729, "stopNumber": 1590, "stopNameShort": "LUEG", "stopName": "Zürich, Luegisland" }, "geometry": { "type": "Point", "coordinates": [ 8.581560277777781, 47.405944444444401 ] } }
,
{ "type": "Feature", "properties": { "stopId": 2730, "stopNumber": 1592, "stopNameShort": "LUGG", "stopName": "Zürich, Luggwegstrasse" }, "geometry": { "type": "Point", "coordinates": [ 8.49236277777778, 47.3897825 ] } }
,
{ "type": "Feature", "properties": { "stopId": 2730, "stopNumber": 1592, "stopNameShort": "LUGG", "stopName": "Zürich, Luggwegstrasse" }, "geometry": { "type": "Point", "coordinates": [ 8.494708055555559, 47.389158333333299 ] } }
,
{ "type": "Feature", "properties": { "stopId": 1523, "stopNumber": 1595, "stopNameShort": "LAEG", "stopName": "Zürich, Lägernstrasse" }, "geometry": { "type": "Point", "coordinates": [ 8.532091111111111, 47.395844722222201 ] } }
,
{ "type": "Feature", "properties": { "stopId": 1523, "stopNumber": 1595, "stopNameShort": "LAEG", "stopName": "Zürich, Lägernstrasse" }, "geometry": { "type": "Point", "coordinates": [ 8.53226722222222, 47.396031944444402 ] } }
,
{ "type": "Feature", "properties": { "stopId": 2256, "stopNumber": 1608, "stopNameShort": "LOEW", "stopName": "Zürich, Löwenplatz" }, "geometry": { "type": "Point", "coordinates": [ 8.537241944444441, 47.375808888888898 ] } }
,
{ "type": "Feature", "properties": { "stopId": 2256, "stopNumber": 1608, "stopNameShort": "LOEW", "stopName": "Zürich, Löwenplatz" }, "geometry": { "type": "Point", "coordinates": [ 8.537525, 47.376048888888903 ] } }
,
{ "type": "Feature", "properties": { "stopId": 2573, "stopNumber": 1611, "stopNameShort": "MAIE", "stopName": "Zürich, Maienweg" }, "geometry": { "type": "Point", "coordinates": [ 8.526475, 47.407564444444397 ] } }
,
{ "type": "Feature", "properties": { "stopId": 2573, "stopNumber": 1611, "stopNameShort": "MAIE", "stopName": "Zürich, Maienweg" }, "geometry": { "type": "Point", "coordinates": [ 8.52650361111111, 47.407663055555602 ] } }
,
{ "type": "Feature", "properties": { "stopId": 1907, "stopNumber": 1612, "stopNameShort": "MANG", "stopName": "Zürich, Manegg" }, "geometry": { "type": "Point", "coordinates": [ 8.519891111111111, 47.337095277777799 ] } }
,
{ "type": "Feature", "properties": { "stopId": 1907, "stopNumber": 1612, "stopNameShort": "MANG", "stopName": "Zürich, Manegg" }, "geometry": { "type": "Point", "coordinates": [ 8.52042972222222, 47.336901388888897 ] } }
,
{ "type": "Feature", "properties": { "stopId": 2576, "stopNumber": 1614, "stopNameShort": "MANS", "stopName": "Zürich, Manesseplatz" }, "geometry": { "type": "Point", "coordinates": [ 8.52132, 47.365128888888897 ] } }
,
{ "type": "Feature", "properties": { "stopId": 2576, "stopNumber": 1614, "stopNameShort": "MANS", "stopName": "Zürich, Manesseplatz" }, "geometry": { "type": "Point", "coordinates": [ 8.521511388888889, 47.365433055555599 ] } }
,
{ "type": "Feature", "properties": { "stopId": 2576, "stopNumber": 1614, "stopNameShort": "MANS", "stopName": "Zürich, Manesseplatz" }, "geometry": { "type": "Point", "coordinates": [ 8.52192888888889, 47.3657797222222 ] } }
,
{ "type": "Feature", "properties": { "stopId": 2578, "stopNumber": 1615, "stopNameShort": "MARB", "stopName": "Zürich, Marbachweg" }, "geometry": { "type": "Point", "coordinates": [ 8.51526777777778, 47.330275 ] } }
,
{ "type": "Feature", "properties": { "stopId": 2578, "stopNumber": 1615, "stopNameShort": "MARB", "stopName": "Zürich, Marbachweg" }, "geometry": { "type": "Point", "coordinates": [ 8.51548166666667, 47.33039 ] } }
,
{ "type": "Feature", "properties": { "stopId": 2346, "stopNumber": 1616, "stopNameShort": "MARW", "stopName": "Dietikon, Marmori-Weiher" }, "geometry": { "type": "Point", "coordinates": [ 8.394168333333329, 47.399010277777798 ] } }
,
{ "type": "Feature", "properties": { "stopId": 2346, "stopNumber": 1616, "stopNameShort": "MARW", "stopName": "Dietikon, Marmori-Weiher" }, "geometry": { "type": "Point", "coordinates": [ 8.39448972222222, 47.399196388888903 ] } }
,
{ "type": "Feature", "properties": { "stopId": 2356, "stopNumber": 1620, "stopNameShort": "MATT", "stopName": "Zürich, Mattenhof" }, "geometry": { "type": "Point", "coordinates": [ 8.59074694444444, 47.398801111111098 ] } }
,
{ "type": "Feature", "properties": { "stopId": 2356, "stopNumber": 1620, "stopNameShort": "MATT", "stopName": "Zürich, Mattenhof" }, "geometry": { "type": "Point", "coordinates": [ 8.590755833333329, 47.398594166666697 ] } }
,
{ "type": "Feature", "properties": { "stopId": 2356, "stopNumber": 1620, "stopNameShort": "MATT", "stopName": "Zürich, Mattenhof" }, "geometry": { "type": "Point", "coordinates": [ 8.59093, 47.398691388888899 ] } }
,
{ "type": "Feature", "properties": { "stopId": 2356, "stopNumber": 1620, "stopNameShort": "MATT", "stopName": "Zürich, Mattenhof" }, "geometry": { "type": "Point", "coordinates": [ 8.591140555555549, 47.3986172222222 ] } }
,
{ "type": "Feature", "properties": { "stopId": 2607, "stopNumber": 1626, "stopNameShort": "MEIE", "stopName": "Zürich, Meierhofplatz" }, "geometry": { "type": "Point", "coordinates": [ 8.49953277777778, 47.4026427777778 ] } }
,
{ "type": "Feature", "properties": { "stopId": 2607, "stopNumber": 1626, "stopNameShort": "MEIE", "stopName": "Zürich, Meierhofplatz" }, "geometry": { "type": "Point", "coordinates": [ 8.49958472222222, 47.402597222222198 ] } }
,
{ "type": "Feature", "properties": { "stopId": 2607, "stopNumber": 1626, "stopNameShort": "MEIE", "stopName": "Zürich, Meierhofplatz" }, "geometry": { "type": "Point", "coordinates": [ 8.4998075, 47.401803611111099 ] } }
,
{ "type": "Feature", "properties": { "stopId": 2607, "stopNumber": 1626, "stopNameShort": "MEIE", "stopName": "Zürich, Meierhofplatz" }, "geometry": { "type": "Point", "coordinates": [ 8.49995333333333, 47.401811388888902 ] } }
,
{ "type": "Feature", "properties": { "stopId": 2607, "stopNumber": 1626, "stopNameShort": "MEIE", "stopName": "Zürich, Meierhofplatz" }, "geometry": { "type": "Point", "coordinates": [ 8.500401388888889, 47.401681111111102 ] } }
,
{ "type": "Feature", "properties": { "stopId": 2607, "stopNumber": 1626, "stopNameShort": "MEIE", "stopName": "Zürich, Meierhofplatz" }, "geometry": { "type": "Point", "coordinates": [ 8.500665833333329, 47.401660833333302 ] } }
,
{ "type": "Feature", "properties": { "stopId": 1114, "stopNumber": 1627, "stopNameShort": "MEHO", "stopName": "Dübendorf, Meiershofstrasse" }, "geometry": { "type": "Point", "coordinates": [ 8.613101944444439, 47.396651111111098 ] } }
,
{ "type": "Feature", "properties": { "stopId": 1114, "stopNumber": 1627, "stopNameShort": "MEHO", "stopName": "Dübendorf, Meiershofstrasse" }, "geometry": { "type": "Point", "coordinates": [ 8.613883888888889, 47.396670277777801 ] } }
,
{ "type": "Feature", "properties": { "stopId": 2383, "stopNumber": 1640, "stopNameShort": "MICA", "stopName": "Zürich, Micafil" }, "geometry": { "type": "Point", "coordinates": [ 8.47439888888889, 47.393039166666703 ] } }
,
{ "type": "Feature", "properties": { "stopId": 2383, "stopNumber": 1640, "stopNameShort": "MICA", "stopName": "Zürich, Micafil" },